place_id,name,latitude,longitude,Main_category,categories,rating,address
ChIJ_____3N444kRhJdEJx1xscY,American Discount Roofing,42.3578474,-71.1840263,Finance,"roofing_contractor,general_contractor,point_of_interest,establishment,",,Newton
ChIJ____Pzie44kRaMlvj5itcVs,Bank of America Financial Center,42.4826282,-71.2145373,Finance,"bank,finance,point_of_interest,establishment,",3.7,"75 Middlesex Turnpike, Burlington"
ChIJ__-phBB644kR7Mej2-FHRyc,Church of Christ Scientist,42.3444202,-71.0854175,Community,"church,place_of_worship,point_of_interest,establishment,",4.2,"Church Edifice, 210 Massachusetts Ave, Boston"
ChIJ__-phBB644kRHe4I-52hNi4,"Christian Science Plaza, Boston",42.3445801,-71.084287,Community,"parking,church,place_of_worship,point_of_interest,establishment,",4.7,"250 Massachusetts Avenue, Boston"
ChIJ__PrcoKI44kRLemewl9FSxI,Ulta Beauty,42.2981544,-71.3821218,Community,"beauty_salon,hair_care,store,point_of_interest,establishment,",3.5,"1286 Worcester Street, Natick"
ChIJ_0_LpIVw44kRxMGnZCoJTmo,City of Boston,42.3601998,-71.057951,Community,"neighborhood,local_government_office,political,point_of_interest,establishment,",,"City of Boston, 1 City Hall Square, Boston"
ChIJ_3qMb0q744kRIoB4qI8KBrE,Greater Lowell Technical High School,42.6539016,-71.3858342,Education,"school,point_of_interest,establishment,",3.8,"250 Pawtucket Boulevard, Tyngsborough"
ChIJ_4-IgSOD44kR6Dk791SnJ0U,"Wendy Holdan, MSPT",42.3695493,-71.2493796,Health,"physiotherapist,health,point_of_interest,establishment,",,"9 Hope Avenue, Waltham"
ChIJ_4-IgSOD44kRz6OMtY4iXbk,"Dr. Robert K. Mcintyre, MD",42.3695493,-71.2493796,Health,"doctor,health,point_of_interest,establishment,",4,"9 Hope Avenue # 152, Waltham"
ChIJ_5XFat195IkRJbBjs36btMQ,C2 Body - Dedham,42.2566634,-71.166048,Health,"gym,health,point_of_interest,establishment,",,"200 Providence Highway, Dedham"
ChIJ_6XXGZR_44kRWbXmfqVw6K0,Papa Gino's,42.243154,-71.173284,Health,"meal_delivery,meal_takeaway,restaurant,food,point_of_interest,establishment,",3.7,"600 Providence Highway, Dedham"
ChIJ_7_7HDKe44kRGHEBcrDtbL4,Lahey Clinic Medical Center: Dribinsky Loren MD,42.4845359,-71.2050211,Health,"doctor,health,point_of_interest,establishment,",,"41 Burlington Mall Road, Burlington"
ChIJ_7_7HDKe44kRyLB-_Nsiifg,"Dr. Frederick W. Heiss, MD",42.4845359,-71.2050211,Health,"doctor,health,point_of_interest,establishment,",,"41 Burlington Mall Road, Burlington"
ChIJ_7xKIjtj44kR-NGXb_ko-kY,Roche Bros. Quincy,42.238147,-70.983846,Health,"supermarket,florist,bakery,grocery_or_supermarket,store,food,point_of_interest,establishment,",4.1,"101 Falls Boulevard #3, Quincy"
ChIJ_alUdVyL44kR589SpRSnQlY,"Patricia L. Byler, PT",42.3537546,-71.5548638,Health,"physiotherapist,health,point_of_interest,establishment,",,"157 Union Street, Marlborough"
ChIJ_bTuuEGa44kR613sULxiBkY,ATA Cycle,42.4567667,-71.3570163,Health,"bicycle_store,store,point_of_interest,establishment,",4.9,"93 Thoreau Street, Concord"
ChIJ_bZGKKaB44kRKkl5Jq39hMk,Needham Police Department,42.2784826,-71.2366165,Community,"police,point_of_interest,establishment,",,"99 School Street, Needham"
ChIJ_cxJpB5j5IkRVGtgYI4X2nQ,Umiya Mata Mandir,42.0557573,-71.2452138,Community,"hindu_temple,place_of_worship,point_of_interest,establishment,",4.6,"52, 33 Commercial Street, Foxborough"
ChIJ_dgmSw5544kRnQ-wQiehifw,Hellenic College and Holy Cross Greek Orthodox School Of Theology,42.3172451,-71.1288803,Community,"university,church,place_of_worship,point_of_interest,establishment,",4.9,"50 Goddard Avenue, Brookline"
ChIJ_e0FANB044kRtCtYwmUPpBI,ProSource of Boston,42.5070546,-71.1332921,Finance,"roofing_contractor,furniture_store,home_goods_store,store,general_contractor,point_of_interest,establishment,",3.6,"20 Commerce Way, Woburn"
ChIJ_eAHzYdk44kRkFEabuv4sUE,Quincy Fire Department Hough's Neck Station,42.2678101,-70.9576289,Community,"fire_station,point_of_interest,establishment,",4,"1082 Sea Street, Quincy"
ChIJ_fXjoYv044kRX_EIlG6kmTg,Regal Cinemas Solomon Pond 15,42.35609,-71.613866,Community,"movie_theater,point_of_interest,establishment,",3.6,"591 Donald Lynch Boulevard, Marlborough"
ChIJ_QazSRaK44kRQgu1SjkPKpI,Staples Child Care Center,42.2913738,-71.4889383,Education,"school,point_of_interest,establishment,",3.5,"600 Staples Drive, Framingham"
ChIJ_QWX_zaQ5IkRVGu18kBzuA4,Bridgewater Forestry Department,42.0030671,-70.981508,Community,"campground,park,lodging,point_of_interest,establishment,",4,"151 High Street, Bridgewater"
ChIJ_S8xi3R644kRx4RyIyCyUN4,Schmidt & Federico,42.3496809,-71.0729229,Community,"lawyer,health,point_of_interest,establishment,",,"200 Berkeley Street, Boston"
ChIJ_VHPPpV544kRPNRucacPJls,FuGaKyu Japanese Cuisine,42.34295,-71.119378,Health,"meal_delivery,bar,meal_takeaway,lodging,restaurant,food,point_of_interest,establishment,",4.2,"1280 Beacon Street, Brookline"
ChIJ_VHPPpV544kRPNRucacPJls,FuGaKyu Japanese Cuisine,42.34295,-71.119378,Health,"meal_delivery,bar,meal_takeaway,lodging,restaurant,food,point_of_interest,establishment,",4.2,"1280 Beacon Street, Brookline"
ChIJ_XcQ8cyC44kRzNVxBRUvr3g,Waltham District Court,42.378726,-71.22451,Community,"courthouse,local_government_office,point_of_interest,establishment,",2,"38 Linden Street, Waltham"
ChIJ_xht-_R044kRyJfDcAcC2aM,TD Bank,42.4800992,-71.1237006,Finance,"bank,atm,finance,point_of_interest,establishment,",4.2,"280 Montvale Avenue, Woburn"
ChIJ_y5pDzNx44kR9F_WkBg4I38,Mystic Place,42.4100235,-71.0952279,Finance,"real_estate_agency,point_of_interest,establishment,",3.4,"3610 Mystic Valley Parkway, Medford"
ChIJ_Yyp9Gp644kRH5h54ObOKms,Boston University Henry M. Goldman School of Dental Medicine,42.3363425,-71.070395,Education,"dentist,university,health,point_of_interest,establishment,",4,"100 East Newton Street, Boston"
ChIJ_Yyp9Gp644kRH5h54ObOKms,Boston University Henry M. Goldman School of Dental Medicine,42.3363425,-71.070395,Health,"dentist,university,health,point_of_interest,establishment,",4,"100 East Newton Street, Boston"
ChIJ_Z8KhHGf5IkR9T24V9a5164,Mastercraft Roofing Siding Windows,42.176012,-70.8894852,Finance,"roofing_contractor,home_goods_store,store,general_contractor,point_of_interest,establishment,",,"49 Whiting Street Rte 53, Hingham"
ChIJ_ZjYAQ1644kRom_91_z99_Y,Boston (Copley) - Harvard Vanguard Medical Associates,42.3478256,-71.0760173,Health,"pharmacy,doctor,store,health,point_of_interest,establishment,",4.1,"165 Dartmouth Street, Boston"
ChIJ-09nQvJ544kRwqBbhQBrhmg,Brookline Arts Center,42.345333,-71.106832,Community,"art_gallery,point_of_interest,establishment,",4,"86 Monmouth Street, Brookline"
ChIJ-1H59p5w44kRrBrTFVwW-Iw,Beacon Hill Hotel & Bistro,42.3569241,-71.0696907,Health,"lodging,restaurant,food,point_of_interest,establishment,",4.4,"25 Charles Street, Boston"
ChIJ-3NgJxV644kRbPGywx5FjBU,Flour Bakery & Cafe,42.338456,-71.0746391,Health,"bakery,store,food,point_of_interest,establishment,",4.5,"1595 Washington Street, Boston"
ChIJ-3vNbw1644kRdNwfuzAL4UQ,Bank of America ATM,42.3492055,-71.0751278,Finance,"atm,finance,point_of_interest,establishment,",1,"200 Clarendon Street, Boston"
ChIJ-3W6OwJi44kRbHCOa--b0pM,REI,42.1774307,-70.9111537,Health,"shoe_store,bicycle_store,clothing_store,store,point_of_interest,establishment,",4.6,"98 Old Derby Street Ste 470, Hingham"
ChIJ-5_M2BaC44kR7_72G1h4IVE,Avalon at Newton Highlands,42.3143193,-71.2127494,Finance,"real_estate_agency,point_of_interest,establishment,",4.8,"99 Needham Street, Newton"
ChIJ-6gL8_9544kRD1kreuQTogU,Henry G. Steinbrenner Stadium,42.3583832,-71.0980482,Health,"stadium,point_of_interest,establishment,",5,Cambridge
ChIJ-bV1UkiH5IkRZ9DXsqUaw3s,Sharon Memorial Park,42.1474891,-71.1698118,Community,"cemetery,point_of_interest,establishment,",2.6,"120 Canton Street, Sharon"
ChIJ-clIT2Z544kRNyw7sQILwt8,Cardtronics ATM,42.3064375,-71.1072282,Finance,"atm,finance,point_of_interest,establishment,",,"3484 Washington Street, Jamaica Plain"
ChIJ-dSuX51w44kRaolSbJweAXk,Equinox Sports Club Boston,42.353014,-71.063256,Health,"gym,spa,health,point_of_interest,establishment,",3.9,"4 Avery Street, Boston"
ChIJ-dZ7rQ9644kRylrNuQrOMA0,Supercuts,42.3489625,-71.0826117,Community,"beauty_salon,hair_care,health,point_of_interest,establishment,",4.1,"829 Boylston Street, Boston"
ChIJ-QqPk3R644kReHaN-DNc4cQ,Consulate General of Turkey,42.3509277,-71.0716548,Community,"embassy,point_of_interest,establishment,",4.4,"31 Saint James Avenue Suite 840, Boston"
ChIJ-RK-jIVw44kRyF0JBm7Ga6Y,The New England Holocaust Memorial,42.3612471,-71.0572517,Community,"park,point_of_interest,establishment,",4.7,"98 Union Street, Boston"
ChIJ-RWDiWZ744kRx1Il-MmDFPg,Panera Bread,42.278254,-71.030669,Health,"cafe,bakery,meal_takeaway,store,restaurant,food,point_of_interest,establishment,",4,"200 Hancock Street, Quincy"
ChIJ-S7Nz4Rw44kRyGucBOsPkZ8,John Adams Courthouse,42.3592149,-71.0611283,Community,"courthouse,point_of_interest,establishment,",4.8,"1 Pemberton Square, Boston"
ChIJ-SIDG9Cd44kRc8-uPTlo7uM,TD Bank,42.4481001,-71.228976,Finance,"bank,atm,finance,point_of_interest,establishment,",4,"1840 Massachusetts Avenue, Lexington"
ChIJ-SUSzit_44kRh0Wlp9BMoH8,Holy Name Parish,42.2880629,-71.1467769,Community,"church,place_of_worship,point_of_interest,establishment,",4,"1689 Centre Street, West Roxbury"
ChIJ-SYOdxt344kR7FlzOOnMUKU,"Cambridge Smiles, Paula Sones, DDS",42.3970597,-71.1302576,Health,"doctor,dentist,health,point_of_interest,establishment,",5,"2400 Massachusetts Avenue, Cambridge"
ChIJ-TSLM3R644kRfSZuZZQbmE4,Consulate General-Royal Thai,42.351342,-71.0689653,Community,"embassy,point_of_interest,establishment,",3,"20 Park Plaza #414, Boston"
ChIJ-TSLM3R644kRgQcrLQooGsA,Consulate General of Israel,42.351342,-71.0689653,Community,"embassy,point_of_interest,establishment,",1.9,"4309, 20 Park Plaza #1026, Boston"
ChIJ-TSLM3R644kRhUiyqoub8n8,Consulate General of the Dominican Republic,42.351342,-71.0689653,Community,"embassy,point_of_interest,establishment,",2.9,"20 Park Plaza #601, Boston"
ChIJ-TSLM3R644kRLj1X55EGga8,Consulate General of Peru,42.3513446,-71.0688062,Community,"embassy,point_of_interest,establishment,",3.2,"20 Park Plaza #511, Boston"
ChIJ-TSLM3R644kRobw3vwfLM_Q,CME International Inc,42.351342,-71.0689653,Community,"church,place_of_worship,point_of_interest,establishment,",,"20 Park Plaza #400, Boston"
ChIJ-TSLM3R644kRseyeywucaIk,Tepper Takayama Fine Arts,42.351342,-71.0689653,Community,"art_gallery,point_of_interest,establishment,",5,"20 Park Plaza #600, Boston"
ChIJ-Ua_Nhd65IkRHTDLoq1vspY,Consulate General of The Islamic Republic of Pakistan,42.1645695,-71.3641647,Community,"embassy,point_of_interest,establishment,",5,"1032 Main Street Unit 5, Millis"
ChIJ-VkGOagc44kRm-dfKPQUPWo,United States Postal Service,42.7208707,-70.9922158,Community,"post_office,finance,point_of_interest,establishment,",5,"64 Central Street Ste 9, Georgetown"
ChIJ-xdl3dSA5IkR3A3D1fS8s5Y,"Daniel Holland, PT",42.1395299,-71.1446659,Health,"physiotherapist,health,point_of_interest,establishment,",,"95 Washington Street, Canton"
ChIJ-xdl3dSA5IkR6Zw--zUJExo,Five Guys,42.1404868,-71.1467337,Health,"meal_takeaway,restaurant,food,point_of_interest,establishment,",4.2,"95 Washington Street, Canton"
ChIJ-xdl3dSA5IkR79HarCwpWv4,"Kaitlin Gagnon, DPT",42.1405118,-71.1478038,Health,"physiotherapist,health,point_of_interest,establishment,",,"95 Washington Street, Canton"
ChIJ-xdl3dSA5IkRCnFwTyZMtRE,"Aleksandra Golberg, MSPT",42.1405644,-71.1478678,Health,"physiotherapist,health,point_of_interest,establishment,",,"95 Washington St, Canton, MA 020214006, Canton"
ChIJ-Xj_hRmj44kR6vRoMxqn5Gk,St Mary's Church,42.6000319,-71.3525808,Community,"church,place_of_worship,point_of_interest,establishment,",4.7,"25 North Road, Chelmsford"
ChIJ-XjCeNKM44kRfpK1e16lUPs,Assabet River Bicycles,42.3924492,-71.5546025,Health,"bicycle_store,store,point_of_interest,establishment,",3.8,"90 Cherry Street, Hudson"
ChIJ-zF2d8V744kRm0U1kfJ9PKU,Muhammad's Mosque,42.3082987,-71.0827269,Community,"place_of_worship,mosque,point_of_interest,establishment,",4.5,"10 Washington Street, Dorchester"
ChIJ-Ztdy_V544kRpsP0LaXNbkk,CrimsonBikes Giant Boston,42.3445517,-71.1005525,Health,"bicycle_store,clothing_store,store,point_of_interest,establishment,",4.1,"11 Kilmarnock Street, Boston"
ChIJ-ZXC29SC44kRvClbRHtmlO0,Waltham Fire Department,42.3824334,-71.2362688,Community,"fire_station,point_of_interest,establishment,",5,"175 Lexington Street, Waltham"
ChIJ0_JOhpCj44kRPdg6k3eQf5Q,Showcase Cinemas Lowell,42.6107286,-71.3230595,Community,"movie_theater,point_of_interest,establishment,",4.3,"32 Reiss Avenue, Lowell"
ChIJ0_vHelp544kRcYMPilD_LRA,Forest Hills Cemetery,42.2948727,-71.1056623,Community,"cemetery,point_of_interest,establishment,",4.7,"95 Forest Hills Ave, Jamaica Plain"
ChIJ0-1sUjRj44kRoej3d0v4-6M,Quincy Fire Department,42.2447322,-70.9985027,Community,"fire_station,point_of_interest,establishment,",5,"40 Quincy Avenue, Quincy"
ChIJ0-lF5MN544kR9puEdeDvxAM,Clear Flour Bakery,42.350031,-71.126145,Health,"bakery,store,food,point_of_interest,establishment,",4.8,"178 Thorndike Street, Brookline"
ChIJ03sbO51w44kRBFwu4_-h98c,Empire Beauty School,42.3546652,-71.0626964,Community,"beauty_salon,hair_care,spa,point_of_interest,establishment,",3.7,"30 West Street, Boston"
ChIJ05goea9z44kR5CO4bg8nsiY,Melrose-Wakefield Hospital,42.4599824,-71.0610669,Health,"hospital,point_of_interest,establishment,",2.8,"585 Lebanon Street, Melrose"
ChIJ05lekXR644kR0-FHVHlfGqg,Invictus Boston Back Bay,42.3511341,-71.0710915,Health,"physiotherapist,gym,health,point_of_interest,establishment,",4.4,"31 Saint James Avenue, Boston"
ChIJ05lekXR644kR0-FHVHlfGqg,Invictus Boston Back Bay,42.3511341,-71.0710915,Health,"physiotherapist,gym,health,point_of_interest,establishment,",4.4,"31 Saint James Avenue, Boston"
ChIJ0696ai9344kRhjoZK0M2ZTY,Benedictus Contracting,42.3928443,-71.1079246,Finance,"roofing_contractor,point_of_interest,establishment,",3,"17 Princeton Street, Somerville"
ChIJ07HIbKYW44kRFT-LZ7KVnm0,Harmony Home Theater,42.5555246,-70.8936828,Community,"movie_theater,point_of_interest,establishment,",4.5,"269 Elliott St, Beverly, Ma 01915, Beverly"
ChIJ0anVLN9h44kRBl9ZHbdJu8M,Rite Aid,42.171117,-70.876687,Health,"pharmacy,convenience_store,store,health,food,point_of_interest,establishment,",3,"119 Washington Street, Norwell"
ChIJ0b-JS-J344kR0z5ZpgbqKyY,Belmont Wheelworks,42.3871943,-71.1892711,Health,"bicycle_store,store,point_of_interest,establishment,",3.9,"480 Trapelo Road, Belmont"
ChIJ0d-eHXl644kR-9gAty9Z068,South Street Diner,42.3498337,-71.057746,Health,"bakery,store,restaurant,food,point_of_interest,establishment,",4,"178 Kneeland Street, Boston"
ChIJ0dtrA42I44kR74pVHwm98ak,Bankers Life,42.3899525,-71.2576012,Finance,"insurance_agency,point_of_interest,establishment,",5,"300 5th Avenue Ste 6010, Waltham"
ChIJ0em5sUKX5IkRKmm4AD46ipA,Maul's Bike Shop,41.9950893,-70.8444657,Health,"bicycle_store,store,point_of_interest,establishment,",5,"300 Plymouth Street, Halifax"
ChIJ0eqeERAK5IkRuhRakIkMwCE,Sri Shirdi Sai Baba Temple,42.2905422,-71.6558864,Community,"hindu_temple,place_of_worship,point_of_interest,establishment,",4.8,"107 Otis Street, Northborough"
ChIJ0f8PtHx644kRhb-e9PqR_IQ,KO Catering and Pies,42.3424374,-71.0545769,Health,"meal_delivery,meal_takeaway,store,restaurant,food,point_of_interest,establishment,",4.6,"87 A Street, South Boston"
ChIJ0f8PtHx644kRhb-e9PqR_IQ,KO Catering and Pies,42.3424374,-71.0545769,Health,"meal_delivery,meal_takeaway,store,restaurant,food,point_of_interest,establishment,",4.6,"87 A Street, South Boston"
ChIJ0fJL_jV444kRJ0I7Dpi30hQ,Boston Police District D-14 Brighton/ Allston,42.3493,-71.1506,Community,"police,point_of_interest,establishment,",1.6,"301 Washington Street, Brighton"
ChIJ0RXMMSd-5IkRWCWLOwfb1qY,Landry's Bicycles,42.171236,-71.194544,Health,"bicycle_store,store,point_of_interest,establishment,",4.4,"1210 Boston-Providence Turnpike, Norwood"
ChIJ0SMjxmB644kRvYb733zQxpA,Domino's Pizza,42.3341348,-71.0549515,Health,"meal_delivery,meal_takeaway,restaurant,food,point_of_interest,establishment,",2.3,"163 Old Colony Avenue, Boston"
ChIJ0SV7sXN944kRUEnwSeI7nFU,Archdiocese of Boston,42.2128731,-71.0408197,Community,"church,place_of_worship,point_of_interest,establishment,",2.3,"66 Brooks Drive, Braintree"
ChIJ0TH8T1uY44kRsBGVRPOHFFc,US Post Office,42.5288492,-71.3460324,Community,"post_office,finance,point_of_interest,establishment,",,"70 Bedford Road, Carlisle"
ChIJ0VfYR6Vs44kRF3M12o8secM,Elihu Thomson Administration Building,42.4695684,-70.9182608,Community,"city_hall,local_government_office,point_of_interest,establishment,",,"22 Elmwood Road Rotary, Swampscott"
ChIJ0VjiTT9844kR_TimyzA57x0,Milton Academy Bookstore,42.2568501,-71.0693604,Education,"book_store,store,point_of_interest,establishment,",4.4,"170 Centre Street, Milton"
ChIJ0VWVAXC644kRO0GVY79XxDQ,Barnes & Noble,42.7110068,-71.4430532,Education,"book_store,electronics_store,home_goods_store,store,point_of_interest,establishment,",4.3,"235 Daniel Webster Hwy, Nashua"
ChIJ0Wj6DGUU44kRXhCZNXF-geM,Peabody Essex Museum,42.5217295,-70.8922396,Education,"museum,point_of_interest,establishment,",4.7,"161 Essex Street, Salem"
ChIJ0X8SjpyJ5IkRuONyRPsZTa8,Gold's Gym,41.997855,-71.149726,Health,"gym,health,point_of_interest,establishment,",4.4,"314 East Main Street #4, Norton"
ChIJ0YfXREJ-5IkR_57B5Jj86fo,The Commons at Windsor Gardens,42.1724145,-71.2224537,Finance,"real_estate_agency,point_of_interest,establishment,",3.2,"2433, 624 Walpole Street, Norwood"
ChIJ0zpe_9iC44kR92wvs_lpbGQ,Waltham Masjid,42.3708554,-71.237215,Community,"mosque,place_of_worship,point_of_interest,establishment,",5,"313 Moody Street, Waltham"
ChIJ11_a1phw44kREUKu3SDpek8,US Post Office,42.3596617,-71.071034,Community,"post_office,finance,point_of_interest,establishment,",2.9,"136 Charles Street, Boston"
ChIJ13IzFs8R44kR8_ob8m3bifE,Essex County Sheriff's Department,42.59751,-70.98595,Community,"local_government_office,police,point_of_interest,establishment,",2.6,"20 Manning Avenue, Middleton"
ChIJ14NjYZ8K5IkRw0VcBrdt0ss,The Chateau Westboro Restaurant,42.2869819,-71.5976988,Health,"meal_delivery,night_club,bar,meal_takeaway,restaurant,food,point_of_interest,establishment,",3.9,"95 Turnpike Road, Westborough"
ChIJ14tHKJ1w44kRjltsmQF3pXM,jm Curley,42.355195,-71.0623678,Health,"bar,restaurant,food,point_of_interest,establishment,",4.2,"21 Temple Place, Boston"
ChIJ14tHKJ1w44kRjltsmQF3pXM,jm Curley,42.355195,-71.0623678,Community,"bar,restaurant,food,point_of_interest,establishment,",4.2,"21 Temple Place, Boston"
ChIJ17-G5fuB44kRnzFYvc-KdAM,Russian School of Mathematics - Newton,42.2948787,-71.1996929,Education,"university,school,point_of_interest,establishment,",3.4,"200 Wells Avenue, Newton"
ChIJ18vTMNq644kRkCS4NzcmW04,Berry's Grove Campground,42.67721,-71.394966,Community,"campground,rv_park,park,lodging,point_of_interest,establishment,",4,"35 Davis Street, Tyngsborough"
ChIJ1bA8r5Nw44kRhYzacPBjA-A,Massachusetts State Police Department,42.366861,-71.0689264,Community,"police,point_of_interest,establishment,",3.6,"250 Leverett Circle, Boston"
ChIJ1ch7UVEI44kRr9K34s40Q0A,Camp Maude Eaton,42.6386217,-71.147592,Community,"campground,park,lodging,point_of_interest,establishment,",4.6,"141 Abbot Street, Andover"
ChIJ1cuaGUB444kRZaChvMsicBs,Oak Square YMCA,42.3509382,-71.1671654,Health,"gym,health,point_of_interest,establishment,",4,"615 Washington Street, Brighton"
ChIJ1cvGQIWh44kRAIgst1SAQNE,Bank of America ATM,42.5813691,-71.2890896,Finance,"atm,finance,point_of_interest,establishment,",3.5,"199 Boston Road, Billerica"
ChIJ1fC9V5pw44kRuuyWUHHQsgA,Cafe Podima,42.3610261,-71.0649276,Health,"meal_delivery,meal_takeaway,restaurant,food,point_of_interest,establishment,",3.6,"168 Cambridge Street, Boston"
ChIJ1fC9V5pw44kRuuyWUHHQsgA,Cafe Podima,42.3610261,-71.0649276,Health,"meal_delivery,meal_takeaway,restaurant,food,point_of_interest,establishment,",3.6,"168 Cambridge Street, Boston"
ChIJ1fEkfz5s44kRplKd4N5r_m8,Town of Nahant,42.4213069,-70.9335134,Community,"city_hall,local_government_office,point_of_interest,establishment,",5,"290 Castle Road, Nahant"
ChIJ1ROMjOl044kR_tQLl-MM8SE,"LitmanGerson Associates, LLP Accounting Firm",42.4956888,-71.1274705,Finance,"accounting,finance,point_of_interest,establishment,",,"600 West Cummings Park, Woburn"
ChIJ1ROMjOl044kRwDXVpGeRLUc,Insphere Insurance Solutions,42.4956888,-71.1274705,Finance,"insurance_agency,point_of_interest,establishment,",,"600 West Cummings Park, Woburn"
ChIJ1RRsiI5z44kRUfMgHDQYOBE,Middlesex Fells Reservation,42.4521217,-71.1054561,Community,"park,point_of_interest,establishment,",4.6,"4 Woodland Road, Stoneham"
ChIJ1SJYYOp044kRWXbw1oYUzdA,NEWPRO Home Improvement,42.496359,-71.123805,Finance,"roofing_contractor,home_goods_store,store,general_contractor,point_of_interest,establishment,",4.5,"26 Cedar Street, Woburn"
ChIJ1U_z3jZj44kRLUqKXye5mJo,Olindy's Quincy Avenue Lanes,42.2424825,-70.9935759,Health,"bowling_alley,point_of_interest,establishment,",4.3,"170 Quincy Avenue, Quincy"
ChIJ1UilYZ-F5IkR_BSUQYzxC9k,Us Govt VA,42.0655836,-71.0539384,Community,"courthouse,point_of_interest,establishment,",,"940 Belmont Street, Brockton"
ChIJ1VAwbz1344kRsD2u70FABPU,United States Postal Service,42.3899012,-71.1201587,Community,"post_office,finance,point_of_interest,establishment,",2.3,"1953 Massachusetts Avenue, Cambridge"
ChIJ1Wa4Q7V844kRR4alV0g5m2c,Lovely Pets Aquarium Store,42.2480065,-71.0032756,Community,"aquarium,pet_store,store,point_of_interest,establishment,",4.7,"69 Parkingway, Quincy"
ChIJ1wEQZ2-f44kR5Js7tZudBHQ,Bank of America ATM,42.51849,-71.2534138,Finance,"atm,finance,point_of_interest,establishment,",3.3,"174 Middlesex Turnpike, Bedford"
ChIJ1WOPl4Nw44kR6-Hqc6uxrPY,"CoStar Group, Inc.",42.3560862,-71.0581806,Finance,"real_estate_agency,point_of_interest,establishment,",5,"33 Arch Street, Boston"
ChIJ1xUGCaVw44kRNT7CnhjA9Ec,Tatte Bakery & Cafe,42.3649189,-71.0826462,Health,"cafe,bakery,store,restaurant,food,point_of_interest,establishment,",4.5,"318 Third Street, Cambridge"
ChIJ2_jOBqF044kRGuJl1q7e3MU,Liberty Bay Credit Union,42.49941,-71.162997,Finance,"atm,finance,point_of_interest,establishment,",3,"300 Trade Center suite 1740, Woburn"
ChIJ20dbgAZ444kRADPADF7yhtY,Watertown Fire Department,42.367171,-71.1866191,Community,"fire_station,point_of_interest,establishment,",,"99 Main Street, Watertown"
ChIJ20dbgAZ444kRrtkKnr6tq6k,Watertown Fire Prevention Bur,42.3671409,-71.186582,Community,"fire_station,point_of_interest,establishment,",,"99 Main Street, Watertown"
ChIJ22jBMIqB44kROzuHI396aDw,Catz Needham,42.302054,-71.221046,Health,"gym,physiotherapist,health,point_of_interest,establishment,",4.5,"71 4th Avenue, Needham Heights"
ChIJ23sp9LR544kR-e731B37D-U,Melvin Pharmacy,42.3442884,-71.1420244,Community,"pharmacy,post_office,finance,store,health,point_of_interest,establishment,",4.8,"1558 Commonwealth Avenue, Brighton"
ChIJ24alZ58T44kRaDvmDIoTenQ,"Fit Werx 2 (FW2) - Peabody, MA",42.523744,-70.9302923,Health,"bicycle_store,store,point_of_interest,establishment,",5,"67 Foster Street, Peabody"
ChIJ25IgQK305IkRHLvjnSYs68c,Sheridan Street School,41.9014898,-71.1078236,Education,"school,point_of_interest,establishment,",,Taunton
ChIJ265ylD4N44kRdSo1xjykru4,Kings Dining & Entertainment,42.514671,-71.034686,Health,"bowling_alley,bar,restaurant,food,point_of_interest,establishment,",4.3,"510 Market Street, Lynnfield"
ChIJ271bWFBi5IkRiAU-vnHmSqw,Rite Aid,42.03106,-71.230127,Health,"pharmacy,convenience_store,store,health,food,point_of_interest,establishment,",4,"243 Chauncy Street, Mansfield"
ChIJ27McfGF344kRkAibGTEhlk8,Harvard Stadium,42.366704,-71.1267511,Health,"stadium,point_of_interest,establishment,",4.6,"79 North Harvard Street, Allston"
ChIJ281wLS5344kRuqr8tUEkBho,The Center for Arts at the Armory,42.3896189,-71.1060714,Community,"art_gallery,point_of_interest,establishment,",4.7,"191 Highland Avenue #1c, Somerville"
ChIJ294LqMOG44kR-MHj253-IYg,106 Central St,42.293405,-71.3067231,Education,"university,premise,point_of_interest,establishment,",,Wellesley
ChIJ2aZg8y9344kRVhwHkqsf1Qo,CHA Somerville Hospital,42.3897744,-71.1097777,Health,"hospital,doctor,health,point_of_interest,establishment,",3.3,"230 Highland Avenue, Somerville"
ChIJ2b0OVqub5IkR0hSO63jciB4,bikebarn,42.0672531,-70.949168,Health,"bicycle_store,store,point_of_interest,establishment,",5,"242 Bedford Street, Whitman"
ChIJ2fWgsppw44kR24CP8_C2CJA,Boston Sports Clubs,42.3615804,-71.0609101,Health,"gym,health,point_of_interest,establishment,",3.2,"1 Bulfinch Place, Boston"
ChIJ2fWgsppw44kRaUFE9wRyDeE,Boston Sports Clubs,42.3559935,-71.0589246,Health,"gym,health,point_of_interest,establishment,",3.6,"10 Franklin St, 3rd Floor, Boston"
ChIJ2fWgsppw44kRTdUwubahcII,Suffolk County District Attorney,42.3616218,-71.0608683,Community,"lawyer,local_government_office,point_of_interest,establishment,",3.2,"1 Bulfinch Place, Boston"
ChIJ2Q6jiJN844kR6H0K17F23no,Cardtronics,42.2536116,-71.0279598,Finance,"atm,finance,point_of_interest,establishment,",,"550 Adams Street, Quincy"
ChIJ2TxKLRFF5IkRcbM8D8rGbPs,CBIZ & MHM,42.3504396,-71.0742708,Finance,"accounting,finance,point_of_interest,establishment,",,"500 Boylston Street, Boston"
ChIJ2W0gXKt444kRXdFefNHqoZI,Mount Ida Bookstore,42.2990367,-71.1872229,Education,"book_store,store,point_of_interest,establishment,",,"777 Dedham St, Newton"
ChIJ2w69uEJ344kRKVe3Zf0YBK8,Russell House Tavern,42.373158,-71.119459,Health,"bar,restaurant,food,point_of_interest,establishment,",4.3,"14 John F. Kennedy Street, Cambridge"
ChIJ2w69uEJ344kRKVe3Zf0YBK8,Russell House Tavern,42.373158,-71.119459,Community,"bar,restaurant,food,point_of_interest,establishment,",4.3,"14 John F. Kennedy Street, Cambridge"
ChIJ2WM3Frtz44kRHtr0Ne0SJHQ,Melrose Post Office,42.4564629,-71.0653107,Community,"post_office,finance,point_of_interest,establishment,",5,Melrose
ChIJ2y2RQBp944kRQmtb0UR7tfQ,Konditor Meister,42.2258088,-71.0335753,Health,"bakery,store,food,point_of_interest,establishment,",4.4,"32 Wood Road, Braintree"
ChIJ2ybGFxt644kRAiTDL5ovEBc,Saint Clements Eucharistic Shrine,42.3471431,-71.0898252,Community,"church,place_of_worship,point_of_interest,establishment,",4.8,"1105 Boylston Street, Boston"
ChIJ2yrfxiAU44kRQa-VFjMu1rU,Beverly Police Department,42.5477653,-70.878557,Community,"police,point_of_interest,establishment,",2.5,"191 Cabot Street, Beverly"
ChIJ2yrfxiAU44kRxk0f8YswPqc,Beverly Police-Crmnl Invstgtns,42.5477653,-70.878557,Community,"police,point_of_interest,establishment,",,"191 Cabot Street, Beverly"
ChIJ2ywJ_qJ744kRUYRin40KTm4,Boston Police District C-11 Dorchester,42.2980685,-71.0591413,Community,"police,point_of_interest,establishment,",3.1,"40 Gibson Street, Dorchester"
ChIJ3_ILKZd_44kRF2tfglgtess,Dedham Fire Prevention & Inspc,42.246146,-71.174076,Community,"fire_station,point_of_interest,establishment,",,"436 Washington Street, Dedham"
ChIJ3-trtxyV44kRxbbY17-o6Hs,Boston Minuteman Campground,42.5499514,-71.536847,Community,"campground,rv_park,real_estate_agency,travel_agency,park,lodging,point_of_interest,establishment,",4.2,"264 Ayer Road, Littleton"
ChIJ30SyuYRw44kR3AgSDlvFgp0,Northwestern Mutual - John Mara,42.3584804,-71.0608267,Finance,"insurance_agency,finance,point_of_interest,establishment,",,"1 Beacon Street, Boston"
ChIJ30SyuYRw44kRmvqj221SpKY,Northwestern Mutual - David Feldman,42.3584804,-71.0608267,Finance,"insurance_agency,finance,point_of_interest,establishment,",,"1 Beacon Street, Boston"
ChIJ30VlLIJw44kRk4x9eEYUtbg,PwC,42.3511622,-71.0451882,Finance,"accounting,finance,point_of_interest,establishment,",4.2,"101 Seaport Boulevard, Boston"
ChIJ30VlLIJw44kRru3b9EeNSAk,First Republic Bank,42.3571214,-71.0547544,Finance,"bank,atm,finance,point_of_interest,establishment,",5,"1 Post Office Square, Boston"
ChIJ30VlLIJw44kRru3b9EeNSAk,First Republic Bank,42.3571214,-71.0547544,Finance,"bank,atm,finance,point_of_interest,establishment,",5,"1 Post Office Square, Boston"
ChIJ31wo18uj44kRr-nr--HbN0U,Chelmsford Forum,42.588836,-71.3078463,Health,"stadium,health,school,point_of_interest,establishment,",4.1,"2 Brick Kiln Road, North Billerica"
ChIJ33VP24Jw44kRBpLyeqweFuw,St. Anthony Shrine,42.3549053,-71.0582516,Community,"church,place_of_worship,point_of_interest,establishment,",4.8,"100 Arch Street, Boston"
ChIJ34fy1iJ_44kRAjOB4BTdz1k,The Roxbury Latin School,42.2756452,-71.1559917,Education,"school,point_of_interest,establishment,",4.4,"101 Saint Theresa Avenue, West Roxbury"
ChIJ35KlOwJi44kRcB0EzhUdpGA,MiniLuxe Hingham,42.178596,-70.908931,Community,"beauty_salon,hair_care,point_of_interest,establishment,",4.8,"92 Derby Street Ste. 131, Derby St. Shoppes, Hingham"
ChIJ36FC_cF044kR_uAjkFxKALs,"Anna Linzi, PT",42.4967458,-71.1263769,Health,"physiotherapist,health,point_of_interest,establishment,",,"400 Cummings Park Drive, Woburn"
ChIJ36FC_cF044kR-whaJo9PXvg,Wexler David M CPA,42.4967458,-71.1263769,Finance,"accounting,finance,point_of_interest,establishment,",,"400 Cummings Park Drive # 1925, Woburn"
ChIJ36FC_cF044kR0FvbuQvMe7s,Matt Reimer Co,42.4967458,-71.1263769,Finance,"insurance_agency,point_of_interest,establishment,",,"400 Cummings Park Drive # 4175, Woburn"
ChIJ36FC_cF044kR12s6eKvO4_8,Woburn Physical Therapy,42.4967458,-71.1263769,Health,"physiotherapist,health,point_of_interest,establishment,",4.9,"400 Cummings Park Drive, Woburn"
ChIJ36FC_cF044kRevkXuPDRKcc,"Demetre Xintaropoulos, PTA",42.4967458,-71.1263769,Health,"physiotherapist,health,point_of_interest,establishment,",,"400 Cummings Park Drive # 1400, Woburn"
ChIJ36FC_cF044kRsWOyZocRGWA,Dadgar Insurance,42.4968992,-71.125952,Finance,"insurance_agency,point_of_interest,establishment,",5,"400 Cummings Park Drive # 6725, Woburn"
ChIJ36FC_cF044kRWeMDhIkGNXA,Mocera Visconti & Co,42.4967458,-71.1263769,Finance,"accounting,finance,point_of_interest,establishment,",,"400 Cummings Park Drive # 4350, Woburn"
ChIJ36ITSj5344kR0udKtkZab2g,Simon's Coffee Shop,42.3844759,-71.1198097,Community,"cafe,store,food,point_of_interest,establishment,",4.5,"1736 Massachusetts Avenue, Cambridge"
ChIJ36nGJj6k44kRZjt4gRpcdXM,Pizza Hut,42.6406198,-71.305041,Health,"meal_delivery,meal_takeaway,restaurant,food,point_of_interest,establishment,",2.6,"131 Church Street, Lowell"
ChIJ36uLNx1644kRhhMAI5LhoGo,Century Bank,42.3514911,-71.0729579,Finance,"bank,atm,finance,point_of_interest,establishment,",5,"437 Boylston Street, Boston"
ChIJ36uLNx1644kRhhMAI5LhoGo,Century Bank,42.3514911,-71.0729579,Finance,"bank,atm,finance,point_of_interest,establishment,",5,"437 Boylston Street, Boston"
ChIJ37zG2mxs44kRInvHqp5s8eY,Council On Aging,42.424688,-70.922664,Community,"city_hall,local_government_office,point_of_interest,establishment,",,"41 Valley Road #102, Nahant"
ChIJ38DrcagH44kRKC97cEDXcGU,Lawrence City Hall,42.7082295,-71.1599063,Community,"city_hall,local_government_office,point_of_interest,establishment,",2.6,"200 Common Street, Lawrence"
ChIJ3caHY86e44kRzU1pd32G5jw,Bedford Fire Department,42.4921371,-71.2803216,Community,"fire_station,point_of_interest,establishment,",,"55 Great Road, Bedford"
ChIJ3deprt-f44kRaCgb2GYzDEU,Burlington Fire Department,42.5067814,-71.1949106,Community,"fire_station,point_of_interest,establishment,",,"21 Center Street, Burlington"
ChIJ3dl7Mhp-5IkRRKzmS1Wy7Jc,Metropolitan Insurance,42.1617837,-71.2016569,Finance,"insurance_agency,point_of_interest,establishment,",2,"1 Edgewater Drive, Norwood"
ChIJ3f5clIZ144kR9cBRE7OvS5M,Local BMX Co.,42.468885,-71.208493,Health,"bicycle_store,store,point_of_interest,establishment,",4.2,"43 Middlesex Turnpike, Burlington"
ChIJ3QBtiGYR44kRt-6qwLI4AZo,Western Cycle,42.5678555,-70.9374855,Health,"bicycle_store,store,point_of_interest,establishment,",4.2,"89 Maple Street, Danvers"
ChIJ3REORm5644kRENZIalc9raU,Anthony Greaney LLC,42.3425498,-71.0653567,Community,"art_gallery,point_of_interest,establishment,",,"460 Harrison Avenue # A17, Boston"
ChIJ3REORm5644kRjhXxoHfuNeE,Galer’_a Cubana,42.3425498,-71.0653567,Community,"art_gallery,point_of_interest,establishment,",4,"460 Harrison Avenue, Boston"
ChIJ3REORm5644kRqXauvncbang,Galatea Gallery,42.3425498,-71.0653567,Community,"art_gallery,point_of_interest,establishment,",4,"460 Harrison Avenue # B6, Boston"
ChIJ3RJ0TYRw44kRAXmV_MMqxhk,"Joel H. Schwartz, P.C.",42.3593748,-71.0579897,Community,"lawyer,point_of_interest,establishment,",4.9,"1 Washington Street #16, Boston"
ChIJ3RLSRmV744kR5igXf34gE9Y,"Clarke, Snow & Riley, LLP",42.281089,-71.036794,Finance,"accounting,finance,point_of_interest,establishment,",,"25 Newport Avenue Extension, Quincy"
ChIJ3SK0g4lw44kRAdhuGz3cVcY,St. Stephen's Catholic Church,42.365416,-71.0527078,Community,"place_of_worship,church,point_of_interest,establishment,",4.6,"24 Clark Street, Boston"
ChIJ3VJnSmZ544kRDdb-y9jYKEA,Midway Caf’©,42.3062261,-71.1075396,Community,"bar,point_of_interest,establishment,",4.5,"3496 Washington Street, Boston"
ChIJ3VoMh2Nx44kR9zIghV3amKU,Masjid Ahl At-Taqwa,42.4248134,-71.0651595,Community,"mosque,place_of_worship,point_of_interest,establishment,",4.3,"105 Ferry Street, Malden"
ChIJ3VwV1zee44kR8yeGfXH9K2E,Chili's Grill & Bar,42.4802249,-71.217584,Health,"bar,meal_takeaway,restaurant,food,point_of_interest,establishment,",3.8,"108 Middlesex Turnpike, Burlington"
ChIJ3wdaBoBw44kR7exv5_tU_hs,Jumpstart For Young Children,42.3514666,-71.0498342,Education,"school,point_of_interest,establishment,",,"308 Congress Street, Boston"
ChIJ3wdaBoBw44kRw03LAexT5_c,Boston Children's Museum,42.3518682,-71.0499925,Education,"museum,point_of_interest,establishment,",4.6,"308 Congress Street, Boston"
ChIJ3WWf-z195IkRTrSNTAwEMQg,Rite Aid,42.0936367,-71.2202295,Health,"pharmacy,convenience_store,store,health,food,point_of_interest,establishment,",3.3,"800 South Main Street, Sharon"
ChIJ3XqRqVWc44kRUp0IdeZeQzE,Devaul William,42.4236595,-71.2427414,Community,"lawyer,point_of_interest,establishment,",,"65 Hayden Avenue, Lexington"
ChIJ3Ym6IHV444kRgEnDk_RdkeM,West Suburban YMCA,42.354849,-71.191242,Education,"gym,health,school,point_of_interest,establishment,",3.9,"276 Church Street, Newton"
ChIJ3Ym6IHV444kRgEnDk_RdkeM,West Suburban YMCA,42.354849,-71.191242,Health,"gym,health,school,point_of_interest,establishment,",3.9,"276 Church Street, Newton"
ChIJ3yQFfsef5IkR_E8OwfQZEtI,"Payment Alliance International, Inc.",42.146876,-70.840638,Finance,"atm,finance,point_of_interest,establishment,",,"1775 Washington Street, Hanover"
ChIJ3YSInUt944kRVUqx5H_1UGc,Braintree Civil Defense,42.2060671,-71.005217,Community,"police,point_of_interest,establishment,",,"1 John F Kennedy Memorial Drive, Braintree"
ChIJ3zW42XR644kRZWc6Skg9f1c,James Joseph Salon,42.3520197,-71.0726344,Community,"beauty_salon,hair_care,point_of_interest,establishment,",4,"30 Newbury Street, Boston"
ChIJ4-6n3LET44kRQksnaInfimI,AB Carnes Roofing,42.5278731,-70.9286609,Finance,"roofing_contractor,point_of_interest,establishment,",5,"54 Main Street, Topsfield"
ChIJ40iSCLcD44kRL-MBeuEUX1A,Peabody School,42.7631463,-71.0703348,Education,"school,point_of_interest,establishment,",,Haverhill
ChIJ41-RNoZw44kRUkPVwHNFSyw,Cresa,42.359955,-71.0531661,Finance,"real_estate_agency,point_of_interest,establishment,",5,"200 State Street, Boston"
ChIJ445suIFw44kRAnuwI1Yl5O8,Consulate General of Japan,42.3527688,-71.0535936,Community,"embassy,point_of_interest,establishment,",3.2,"22, 600 Atlantic Avenue, Boston"
ChIJ44ReJHuq44kRetRc9RUZ1io,Jays Aquatics,42.7868625,-71.2033248,Community,"aquarium,point_of_interest,establishment,",4.5,"10 Lawrence Road, Salem"
ChIJ4bwEPIBw44kRs7STmn977tE,Boston Tea Party Ships & Museum,42.3521786,-71.0512797,Education,"museum,point_of_interest,establishment,",4.5,"306 Congress Street, Boston"
ChIJ4c-nk_CC44kR18z8y8FwRH4,West Newton Cinema,42.3489907,-71.226378,Community,"movie_theater,point_of_interest,establishment,",3.7,"1296 Washington Street, West Newton"
ChIJ4eIwuCd644kR8OVyz5vXxR0,Domino's Pizza,42.3312379,-71.0953349,Health,"meal_delivery,meal_takeaway,restaurant,food,point_of_interest,establishment,",2.1,"1400 Tremont St, Roxbury Crossing Station - Space D, Roxbury Crossing"
ChIJ4etQ1sj044kReA0Y8miTegI,Apex Entertainment,42.337935,-71.585624,Health,"bowling_alley,restaurant,food,point_of_interest,establishment,",4.3,"21 Apex Drive, Marlborough"
ChIJ4fJmZ5yQ44kRCy04D92yVD0,Concord Woods Dental Group,42.459769,-71.386738,Health,"dentist,health,point_of_interest,establishment,",,"290 Baker Avenue, Concord"
ChIJ4fJmZ5yQ44kRdvGHCUnBhUM,Concord Woods Dental Group,42.459585,-71.386765,Health,"dentist,doctor,health,point_of_interest,establishment,",5,"290 Baker Avenue #101, Concord"
ChIJ4Q-8rFR344kRRcO7Kp5eN-c,Bertucci's,42.363407,-71.097366,Health,"meal_takeaway,restaurant,food,point_of_interest,establishment,",3.7,"799 Main Street, Cambridge"
ChIJ4Q5hWYJw44kR0KDC-HFxkb8,Dellaria Salon,42.3539891,-71.0581106,Community,"beauty_salon,hair_care,point_of_interest,establishment,",4.6,"78 Summer Street, Boston"
ChIJ4QqUlaUM44kRW5y4r-q8SjE,IMAX 3D Theater at Jordan's Furniture Reading,42.5201065,-71.0896754,Community,"movie_theater,point_of_interest,establishment,",4.7,"50 Walkers Brook Drive, Reading"
ChIJ4RiVsopy44kRCuPgTujogtQ,Tokyo Japanese Steak House,42.4604514,-71.0265539,Health,"meal_takeaway,restaurant,food,point_of_interest,establishment,",3,"1201 Broadway, Saugus"
ChIJ4RiVsopy44kRFQKA9gBD750,Newbury Comics,42.4615699,-71.0271886,Education,"book_store,electronics_store,home_goods_store,store,point_of_interest,establishment,",3.8,"Square One Mall, 1201 Broadway, Saugus"
ChIJ4RiVsopy44kRUG6JPMJFsKA,Dunkin' Donuts,42.46127,-71.027291,Health,"cafe,bakery,store,restaurant,food,point_of_interest,establishment,",2.8,"1201 Broadway, Saugus"
ChIJ4RiVsopy44kRUG6JPMJFsKA,Dunkin' Donuts,42.46127,-71.027291,Community,"cafe,bakery,store,restaurant,food,point_of_interest,establishment,",2.8,"1201 Broadway, Saugus"
ChIJ4RyHVVkB44kRtX898wjRdeU,Cedarland,42.7542238,-71.1025681,Community,"amusement_park,point_of_interest,establishment,",3.7,"888 Boston Road, Haverhill"
ChIJ4SONBTl344kRF8UJiljFwZ0,Petsi Pies,42.383621,-71.112654,Health,"bakery,store,food,point_of_interest,establishment,",4.6,"285 Beacon Street, Somerville"
ChIJ4USrtJxw44kRygxzADbIpgM,Suffolk University Bookstore,42.356879,-71.0610124,Education,"book_store,store,point_of_interest,establishment,",3.4,"120 Tremont Street, Boston"
ChIJ4VSYqpxw44kRy5YykRJk8Zw,Suffolk University,42.3585205,-71.0613561,Education,"university,point_of_interest,establishment,",4.4,"8 Ashburton Place, Boston"
ChIJ4VzPmRl644kRCH9WnDu9kNc,Northeastern University School of Law,42.3391988,-71.0908821,Education,"library,university,point_of_interest,establishment,",4.5,"416 Huntington Avenue, Boston"
ChIJ4VzPmRl644kRCH9WnDu9kNc,Northeastern University School of Law,42.3391988,-71.0908821,Education,"library,university,point_of_interest,establishment,",4.5,"416 Huntington Avenue, Boston"
ChIJ4W7LDrBw44kRhQjlLfS7qVw,Police Department-Accident Invstgtn,42.3672909,-71.0861288,Community,"police,point_of_interest,establishment,",,"125 6th Street, Cambridge"
ChIJ4W7LDrBw44kRJr1J3Rr8eWs,Cambridge Police Department,42.3672909,-71.0861288,Community,"police,point_of_interest,establishment,",4.4,"125 6th Street, Cambridge"
ChIJ4wytTBd644kRAO9i2P0_LrM,Lucy Ethiopian Cafe,42.34267,-71.084256,Community,"cafe,restaurant,food,point_of_interest,establishment,",4.2,"334 Massachusetts Ave, Boston"
ChIJ4X_gmM2Q44kRdH4h6YrGbdU,Pedal Power Bike & Ski,42.485918,-71.417202,Health,"bicycle_store,store,point_of_interest,establishment,",4.2,"176 Great Road, Acton"
ChIJ4Xu6yjR344kRA99h7IhW6y8,The Neighborhood Restaurant,42.3814966,-71.0973049,Health,"bakery,store,restaurant,food,point_of_interest,establishment,",4.6,"25 Bow St, Somerville"
ChIJ4y5yHFV344kRnEEEJ9ijUcw,Consulate General of Mexico in Boston,42.3554499,-71.0586682,Community,"embassy,point_of_interest,establishment,",4.2,"55 Franklin Street, Boston"
ChIJ4y75m2OC44kRzklunX0HiLM,Newton Free Library,42.3358595,-71.2079067,Education,"library,point_of_interest,establishment,",4.7,"330 Homer Street, Newton"
ChIJ4yjjduds44kReCif3dHMSvw,United States Postal Service,42.4649584,-70.9461021,Community,"post_office,finance,point_of_interest,establishment,",3.1,"51 Willow Street, Lynn"
ChIJ4YWW5wNi44kREvd3O9dvO58,Hurry Associates,42.1801487,-70.9117473,Finance,"roofing_contractor,insurance_agency,home_goods_store,store,point_of_interest,establishment,",,"160 Old Derby Street # 221, Hingham"
ChIJ4Yz9cdSh44kR7NycFq4oVMU,Top Nails & Spa,42.5399361,-71.2434305,Community,"beauty_salon,health,point_of_interest,establishment,",3.7,"700 Boston Road #4, Billerica"
ChIJ4zGuY1R344kRstNenwRqk2E,Salvation Army Shelter & Day Care,42.3630198,-71.1004896,Community,"church,place_of_worship,point_of_interest,establishment,",3.5,"402 Massachusetts Avenue, Cambridge"
ChIJ5_VGjGt644kRm5Dxqsu1u4U,Boston Police District D-4 Back Bay/ South End/ Fenway,42.3396293,-71.0691606,Community,"police,point_of_interest,establishment,",2.8,"650 Harrison Avenue, Boston"
ChIJ5-psMU9344kRQQ6-c4VzbwU,Spaulding National Running Center,42.3753523,-71.1068604,Health,"doctor,physiotherapist,health,point_of_interest,establishment,",5,"1575 Cambridge Street, Cambridge"
ChIJ525h04Jw44kRFEGta3MDdNQ,Metropolitan Area Planning Council,42.3550479,-71.0614837,Community,"local_government_office,point_of_interest,establishment,",3.7,"60 Temple Place, Boston"
ChIJ52RU7It544kRI6GIHA9ycOU,Massachusetts General Hospital Department of Dermatology: Saavedra Arturo MD,42.3372011,-71.1021311,Health,"doctor,health,point_of_interest,establishment,",,"50 Staniford Street, Boston"
ChIJ52RU7It544kRktYdNyANU58,Haynes Harley A MD,42.3372871,-71.102142,Health,"doctor,health,point_of_interest,establishment,",,"221 Longwood Avenue, Boston"
ChIJ52RU7It544kRUEeDPVUBRAA,Brigham Dermatology Associates: Buzney Elizabeth MD,42.3372871,-71.102142,Health,"doctor,health,point_of_interest,establishment,",,"221 Longwood Avenue, Boston"
ChIJ52vRLHR644kRjaD_7vUhhFY,Maggiano's Little Italy,42.3510492,-71.068515,Health,"restaurant,bar,food,point_of_interest,establishment,",4.4,"4 Columbus Avenue, Boston"
ChIJ52vRLHR644kRjaD_7vUhhFY,Maggiano's Little Italy,42.3510492,-71.068515,Community,"restaurant,bar,food,point_of_interest,establishment,",4.4,"4 Columbus Avenue, Boston"
ChIJ533cSr5544kR9NV7mcsR8sA,Party Favors,42.3419597,-71.1227663,Health,"bakery,home_goods_store,store,food,point_of_interest,establishment,",4.1,"1356 Beacon Street, Brookline"
ChIJ54qIS5CC44kR0YwK7ETOERg,Newtonville Books,42.3312494,-71.1938429,Education,"book_store,store,point_of_interest,establishment,",4.7,"10 Langley Road, Newton"
ChIJ564LBC-c5IkRPcFdI4m0Ggw,Rockland Trust Branch & Mortgage Center,42.130055,-70.916018,Finance,"bank,atm,finance,point_of_interest,establishment,",3.8,"288 Union Street, Rockland"
ChIJ564LBC-c5IkRPcFdI4m0Ggw,Rockland Trust Branch & Mortgage Center,42.130055,-70.916018,Finance,"bank,atm,finance,point_of_interest,establishment,",3.8,"288 Union Street, Rockland"
ChIJ57WoelR344kRKbrMAa7zfAU,McDonald's,42.363949,-71.100937,Community,"cafe,store,restaurant,food,point_of_interest,establishment,",3.6,"463 Massachusetts Avenue, Cambridge"
ChIJ59WQU-xw44kR5oOR7ItZ9cQ,Papa Gino's,42.3758757,-71.0654236,Health,"restaurant,meal_delivery,meal_takeaway,food,point_of_interest,establishment,",3.3,"19 Austin Street, Charlestown"
ChIJ5aEk7Qx644kR_DbuqB76-3Q,Ernst & Young,42.3492166,-71.0751249,Finance,"accounting,finance,point_of_interest,establishment,",4,"200 Clarendon Street, Boston"
ChIJ5bYz0qiC44kRaFHPDbzHTb0,Apredica LLC,42.3683473,-71.1989289,Health,"pharmacy,store,health,point_of_interest,establishment,",,"313 Pleasant Street # 12, Watertown"
ChIJ5cxDjWZ644kR3_qSuRkzT9I,Gold's Gym,42.3369022,-71.0582222,Health,"gym,health,point_of_interest,establishment,",2.1,"323 Dorchester Avenue, South Boston"
ChIJ5fbolJR744kR0kbxAHNjBqA,Dorchester District Court,42.293936,-71.0714441,Community,"courthouse,point_of_interest,establishment,",3.6,"510 Washington Street, Boston"
ChIJ5fsMEbVx5IkRfnbNdF2OKJ8,Franklin Country Day Camp,42.1318313,-71.4315618,Community,"campground,park,lodging,point_of_interest,establishment,",5,"1221 Pond Street, Franklin"
ChIJ5T8NOox544kR2PieGpKnKNo,Firn Emily,42.3373687,-71.1053496,Health,"physiotherapist,health,point_of_interest,establishment,",,"300 Longwood Avenue, Boston"
ChIJ5T8NOox544kR4CXP6ClwF2M,Dr. Luigi D Notarangelo,42.3383539,-71.1049218,Health,"doctor,health,point_of_interest,establishment,",5,"1 Blackfan Circle, Boston"
ChIJ5T8NOox544kR6AI4x4MHjKs,"Anne Gould, PT",42.3376672,-71.1052864,Health,"physiotherapist,health,point_of_interest,establishment,",,"300 Longwood Avenue Boston Children's Hospital Physical Therapy Services, Boston"
ChIJ5T8NOox544kRAcKPwKDKQIc,"Steven J. Fishman, MD",42.3376672,-71.1052864,Health,"doctor,health,point_of_interest,establishment,",,"300 Longwood Avenue Vascular Anomalies Center 300 Longwood Avenune Fax: 617-730-0752, Boston"
ChIJ5T8NOox544kRaLygs_GkXNQ,"Maritza Morell, DMD, MS",42.3374646,-71.1053217,Health,"dentist,doctor,health,point_of_interest,establishment,",,"300 Longwood Avenue Boston Children's Hospital Department of Dentistry, Boston"
ChIJ5T8NOox544kRCSTCS7Pu5bQ,Luongo Rochelle,42.3373687,-71.1053496,Health,"physiotherapist,health,point_of_interest,establishment,",,"300 Longwood Avenue, Boston"
ChIJ5T8NOox544kREmXJku1VrOE,"Christine Ploski, PT, MS, PCS, Mac, LicAc",42.3376672,-71.1052864,Health,"physiotherapist,health,point_of_interest,establishment,",,"300 Longwood Avenue Boston Children's Hospital Physical Therapy Services, Boston"
ChIJ5T8NOox544kRFiwdPUZbO4k,"Janet Quigley, PT, PCS",42.3376672,-71.1052864,Health,"physiotherapist,health,point_of_interest,establishment,",,"300 Longwood Avenue Boston Children's Hospital Physical Therapy Services, Boston"
ChIJ5T8NOox544kRFr2xUzTrP1k,Abramowicz Shelly DDS,42.3373687,-71.1053496,Health,"dentist,health,point_of_interest,establishment,",,"300 Longwood Avenue, Boston"
ChIJ5T8NOox544kRGjdx9MqLMdQ,Condon Marianne F,42.3373687,-71.1053496,Health,"physiotherapist,health,point_of_interest,establishment,",,"300 Longwood Avenue, Boston"
ChIJ5T8NOox544kRGlk0jy14o0w,"Elizabeth Rodriguez, CPHT",42.3375759,-71.1058588,Health,"pharmacy,store,health,point_of_interest,establishment,",,"300 Longwood Avenue, Boston, MA 02115, Boston"
ChIJ5T8NOox544kRGsGD9y4l05A,Price Grover O,42.3373687,-71.1053496,Health,"physiotherapist,health,point_of_interest,establishment,",,"300 Longwood Avenue, Boston"
ChIJ5T8NOox544kRM2tSCr2KKGk,Kulak Michelina C,42.3373687,-71.1053496,Health,"physiotherapist,health,point_of_interest,establishment,",,"300 Longwood Avenue, Boston"
ChIJ5T8NOox544kRMIUYhFHhIks,Nelson Linda P DDS,42.3369503,-71.1054521,Health,"dentist,health,point_of_interest,establishment,",5,"300 Longwood Avenue #10, Boston"
ChIJ5T8NOox544kRnF-eZU43fx0,"Priscilla Osborne, PT",42.3373687,-71.1053496,Health,"physiotherapist,health,point_of_interest,establishment,",,"300 Longwood Avenue, Boston"
ChIJ5T8NOox544kRpcUZ_3d9OiI,Polizzi Nicole,42.3373687,-71.1053496,Health,"physiotherapist,health,point_of_interest,establishment,",,"300 Longwood Avenue, Boston"
ChIJ5T8NOox544kRPqh_PaHiuz8,"Joan K. Widell, PT",42.3373687,-71.1053496,Health,"physiotherapist,health,point_of_interest,establishment,",,"300 Longwood Avenue, Boston, MA 02115, Boston"
ChIJ5T8NOox544kRqvxAHBpV9S0,Katz Jessica A,42.3373687,-71.1053496,Health,"physiotherapist,health,point_of_interest,establishment,",,"300 Longwood Avenue, Boston"
ChIJ5T8NOox544kRQyIrAT3S8mA,"Annette Correia, OT",42.3376672,-71.1052864,Health,"physiotherapist,health,point_of_interest,establishment,",,"300 Longwood Avenue Boston Children's Hospital Occupational Therapy Services, Boston"
ChIJ5T8NOox544kRsyKmW7HMwcU,"Melissa Weisshaus, LICSW",42.3373687,-71.1053496,Health,"physiotherapist,health,point_of_interest,establishment,",,"300 Longwood Avenue, Boston, MA 02115, Boston"
ChIJ5T8NOox544kRThP7IrHtcms,Pogany Judith B,42.3373687,-71.1053496,Health,"physiotherapist,health,point_of_interest,establishment,",,"300 Longwood Avenue, Boston"
ChIJ5T8NOox544kRvPOjVPSyYvg,"Kaitlyn Burlone, PT, DPT",42.3376672,-71.1052864,Health,"physiotherapist,health,point_of_interest,establishment,",,"300 Longwood Avenue Boston Children's Hospital Physical Therapy Services, Boston"
ChIJ5T8NOox544kRvXeeAUeNiD8,"Lynn P. Cullity, OTR",42.3374302,-71.105438,Health,"physiotherapist,health,point_of_interest,establishment,",,"300 Longwood Avenue, Boston"
ChIJ5T8NOox544kRwlrMMfNovuY,"Rachel Tombeno, PT, DPT",42.3376672,-71.1052864,Health,"physiotherapist,health,point_of_interest,establishment,",,"300 Longwood Avenue Boston Children's Hospital Physical Therapy Services, Boston"
ChIJ5T8NOox544kRXiNFZ-S71bA,Shanske Susan A,42.3373687,-71.1053496,Health,"doctor,physiotherapist,health,point_of_interest,establishment,",,"300 Longwood Avenue, Boston"
ChIJ5TmtRdt044kR1BpV5rj7msg,Panera Bread,42.505113,-71.133036,Health,"cafe,bakery,meal_takeaway,store,restaurant,food,point_of_interest,establishment,",3.8,"296 Mishawum Road, Woburn"
ChIJ5TmtRdt044kR1BpV5rj7msg,Panera Bread,42.505113,-71.133036,Health,"cafe,bakery,meal_takeaway,store,restaurant,food,point_of_interest,establishment,",3.8,"296 Mishawum Road, Woburn"
ChIJ5TmtRdt044kR1BpV5rj7msg,Panera Bread,42.505113,-71.133036,Community,"cafe,bakery,meal_takeaway,store,restaurant,food,point_of_interest,establishment,",3.8,"296 Mishawum Road, Woburn"
ChIJ5VAeJrxw44kR1QXw4DgqTBg,Nature America,42.3696777,-71.0779843,Health,"dentist,health,point_of_interest,establishment,",,"25 First Street #104, Cambridge"
ChIJ5weFzv2C5IkRG4wI8_2Kb9k,Randolph Town Hall,42.161357,-71.0428701,Community,"city_hall,local_government_office,point_of_interest,establishment,",,"41 South Main Street, Randolph"
ChIJ5Whkqkl444kR2ykyDWuedE4,"Brighton Division, Boston Municipal Court",42.3472966,-71.1532169,Community,"courthouse,local_government_office,point_of_interest,establishment,",4.1,"52 Academy Hill Road, Brighton"
ChIJ5WjRcuaf44kRlQBEIkyAE_U,Used Book Superstore,42.5139474,-71.2024751,Education,"movie_rental,book_store,electronics_store,home_goods_store,store,point_of_interest,establishment,",4.5,"256 Cambridge Street, Burlington"
ChIJ5X5NFrtw44kR-3JgwnpN-Es,American Twine Office Park,42.3670097,-71.0802102,Finance,"real_estate_agency,point_of_interest,establishment,",4,"222 Third Street, Cambridge"
ChIJ5X5NFrtw44kRmxRT4IBfDdA,Mass Realty,42.3622374,-71.0801884,Finance,"real_estate_agency,point_of_interest,establishment,",3,"1 Main Street, Cambridge"
ChIJ5y1Y1cSd44kRPO02bA3kPwQ,United States Postal Service,42.4470097,-71.2250912,Community,"post_office,finance,point_of_interest,establishment,",3,"1661 Massachusetts Avenue, Lexington"
ChIJ5Y5R-NoT44kRwfgHOeTxI-E,Sky Zone Trampoline Park,42.554202,-70.940023,Community,"amusement_park,point_of_interest,establishment,",3.9,"100, Liberty Tree Mall, Independence Way, Danvers"
ChIJ5YkitW9644kR_uMJXKJTJDM,Carroll and Sons,42.3427479,-71.0649102,Community,"art_gallery,general_contractor,point_of_interest,establishment,",,"450 Harrison Avenue # 7, Boston"
ChIJ5YkitW9644kRBm9MCfOZ8ik,Kingston Gallery,42.342673,-71.064603,Community,"art_gallery,point_of_interest,establishment,",4.5,"450 Harrison Avenue # 43, Boston"
ChIJ5YkitW9644kReCemhitPF3I,Ouellette Tom,42.3426776,-71.0645873,Community,"art_gallery,point_of_interest,establishment,",,"450 Harrison Avenue # 208, Boston"
ChIJ5YkitW9644kRIgDxDfd0mBQ,Debby Krim Photography,42.3426765,-71.0646557,Community,"art_gallery,point_of_interest,establishment,",5,"450 Harrison Avenue #223a, Boston"
ChIJ5YkitW9644kRNZ-K5BKbo-8,Skye Schulte: Studio 216,42.3426776,-71.0645873,Community,"art_gallery,point_of_interest,establishment,",,"450 Harrison Avenue, Boston"
ChIJ5YkitW9644kRvg-t5yCOnbQ,Charyl Weissbach Fine Art,42.342587,-71.064545,Community,"art_gallery,point_of_interest,establishment,",,"450 Harrison Avenue # 413, Boston"
ChIJ5YkitW9644kRvgHfpSTAHjs,Linda Cordner Painting Studio,42.3426776,-71.0645873,Community,"painter,art_gallery,point_of_interest,establishment,",,"450 Harrison Avenue, Boston"
ChIJ5YkitW9644kRZlFp5WlZ93Q,Gallery Kayafas,42.3425304,-71.0643443,Community,"art_gallery,point_of_interest,establishment,",4.8,"450 Harrison Avenue @ 37 Thayer Street, Boston"
ChIJ5yt8xCaf44kR5u6rJ_QzfeA,Veterans Administration Hospital Post Office,42.5043512,-71.2734581,Community,"post_office,finance,point_of_interest,establishment,",,Bedford
ChIJ5yt8xCaf44kRhLXx_72W5Q0,Back on Track PT,42.505452,-71.270692,Health,"physiotherapist,health,point_of_interest,establishment,",,"200 Springs Road Building #4, Bedford"
ChIJ5yt8xCaf44kRkrF7I3Xr6GU,US Government Va Vision 1,42.505452,-71.270692,Community,"courthouse,point_of_interest,establishment,",,"200 Springs Road, Bedford"
ChIJ5yt8xCaf44kRRFDfMnucgA8,Veterans Benefits Adm,42.505452,-71.270692,Finance,"insurance_agency,point_of_interest,establishment,",,"200 Springs Road, Bedford"
ChIJ5yt8xCaf44kRWtvkZYxO-tc,Burdenko Water & Sports Therapy,42.505452,-71.270692,Health,"physiotherapist,health,point_of_interest,establishment,",,"200 Springs Road # 4, Bedford"
ChIJ5ZsRRhZ644kRmhA-DXVLOao,Gallery At the Factory,42.3388798,-71.0817974,Community,"art_gallery,point_of_interest,establishment,",5,"791 Tremont Street # T, Boston"
ChIJ60pqwwR-5IkR4EfwpxeIrwQ,LA Fitness,42.156492,-71.200424,Health,"gym,spa,health,point_of_interest,establishment,",3.6,"20 Providence Highway, East Walpole"
ChIJ62-aOoRw44kRLn_zkp8SkWI,Hines Edward F,42.3585231,-71.0560762,Community,"lawyer,point_of_interest,establishment,",,"53 State Street, Boston"
ChIJ625sqTma44kRzlBradoLrgI,Concord's Colonial Inn,42.461624,-71.34958,Health,"lodging,restaurant,food,point_of_interest,establishment,",4.3,"48 Monument Square, Concord"
ChIJ62Fh9sgT44kRB1KnOpM3yms,TD Bank,42.5440194,-70.9447188,Finance,"bank,atm,finance,point_of_interest,establishment,",5,"31 Cross Street, Peabody"
ChIJ62W0kn9644kRBePiwo2tO-M,Consulate General of Sweden,42.3495311,-71.0494338,Community,"embassy,point_of_interest,establishment,",5,"326 A Street #2c, Boston"
ChIJ62W0kn9644kRTnvkipFiQ_c,Consulate of Norway,42.3504259,-71.0512334,Community,"embassy,point_of_interest,establishment,",,"326 A Street, Boston"
ChIJ63MSXIJw44kR97qt0_Bj3-I,Commercial Division Teco,42.3536916,-71.0584183,Community,"embassy,point_of_interest,establishment,",1,"99 Summer Street # 801, Boston"
ChIJ63MSXIJw44kRf8tFkIe_39Q,Taipei Economic & Cultural Office in Boston,42.3536916,-71.0584183,Community,"embassy,point_of_interest,establishment,",3.1,"99 Summer Street #801, Boston"
ChIJ64iXaiSH44kRDcHoPuD8iEo,Massachusetts Horticultural Society - The Gardens at Elm Bank,42.2755936,-71.3087323,Community,"park,point_of_interest,establishment,",4.3,"900 Washington St, Wellesley"
ChIJ64nZTQtx44kR9L8VmLnux3o,Everett City Hall,42.4083728,-71.0547077,Community,"city_hall,local_government_office,point_of_interest,establishment,",2.1,"484 Broadway, Everett"
ChIJ665ckXR644kR_1XvrOVKit0,Paradigm Tax Group,42.3502407,-71.0571568,Finance,"accounting,finance,point_of_interest,establishment,",,"745 Atlantic Ave, 8th Floor, Boston"
ChIJ665ckXR644kR6nZj4VndMi0,Consulate General of Spain,42.3509542,-71.0715655,Community,"embassy,point_of_interest,establishment,",2.3,"31 Saint James Avenue #905, Boston"
ChIJ665ckXR644kRCSiuU49EqTI,Paul Mccoy Family Office Services,42.3509525,-71.0715658,Finance,"accounting,finance,point_of_interest,establishment,",,"31 Saint James Avenue # 740, Boston"
ChIJ665ckXR644kRctdQORGHRsA,Hartford,42.3509525,-71.0715658,Finance,"insurance_agency,point_of_interest,establishment,",,"31 Saint James Avenue, Boston"
ChIJ665ckXR644kRr58Vo9c7hCs,Park Square Cafe,42.3508407,-71.071585,Community,"cafe,restaurant,food,point_of_interest,establishment,",3.8,"31 Saint James Avenue, Boston"
ChIJ66ILcSht44kR83jEc0Xru28,Rite Aid,42.477405,-70.955766,Health,"pharmacy,convenience_store,store,health,food,point_of_interest,establishment,",4.5,"52 Boston Street, Lynn"
ChIJ681iCxSD44kRv9x1skW-gVw,The Rabb School of Continuing Studies,42.3629723,-71.2590804,Education,"university,point_of_interest,establishment,",,"415 South Street, Waltham"
ChIJ68UOFx4G44kRXckKLhowqpA,Rite Aid,42.665799,-71.117052,Health,"pharmacy,convenience_store,store,health,food,point_of_interest,establishment,",4.6,"525 Turnpike Street, North Andover"
ChIJ6aS_dup05IkRrd_Pmh_E_M0,Islamic Masumeen Center of New England,42.2288647,-71.5483151,Community,"mosque,place_of_worship,point_of_interest,establishment,",4.9,"115 Wood Street, Hopkinton"
ChIJ6b7bw8gT44kRbIqd4ABTNqE,Barnes & Noble,42.5405126,-70.94769,Education,"book_store,electronics_store,home_goods_store,store,point_of_interest,establishment,",4.5,"210 Andover Street, Peabody"
ChIJ6bhrVdiC44kRJ_QNdLu8opg,Waltham Islamic Society,42.3708549,-71.2372197,Community,"mosque,place_of_worship,point_of_interest,establishment,",4.9,"313 Moody Street, Waltham"
ChIJ6cUaIBR144kREZxUNyJ2xiM,D Entremont Jason,42.4997323,-71.1617067,Finance,"insurance_agency,point_of_interest,establishment,",,"400 Tradecenter # 2900, Woburn"
ChIJ6e8vWNF544kRoVLEBl3Lkus,Boston Boxing & Fitness,42.3596246,-71.1378618,Health,"gym,health,point_of_interest,establishment,",4.9,"100 Holton Street, Brighton"
ChIJ6etNTx1644kRqbTIgcjBSSg,Eastern Standard,42.3484875,-71.0960134,Health,"bar,restaurant,food,point_of_interest,establishment,",4.5,"528 Commonwealth Avenue, Boston"
ChIJ6etNTx1644kRqbTIgcjBSSg,Eastern Standard,42.3484875,-71.0960134,Community,"bar,restaurant,food,point_of_interest,establishment,",4.5,"528 Commonwealth Avenue, Boston"
ChIJ6Qh4fnNj5IkRRFicDsdHcbg,Conservation & Recreation,42.0493893,-71.2662555,Community,"campground,park,lodging,point_of_interest,establishment,",,"45 Mill Street, Foxborough"
ChIJ6SEsJ9F_5IkR3PU2wJvIdkw,Norwood Sport Center,42.192985,-71.199431,Health,"bowling_alley,point_of_interest,establishment,",3.9,"65 Cottage Street East, Norwood"
ChIJ6SOgFDqe44kRdGyhQmWMxTU,TD Bank,42.4846266,-71.2106871,Finance,"bank,atm,finance,point_of_interest,establishment,",,"2200 District Avenue A, Burlington"
ChIJ6SOgFDqe44kRdGyhQmWMxTU,TD Bank,42.4846266,-71.2106871,Finance,"bank,atm,finance,point_of_interest,establishment,",,"2200 District Avenue A, Burlington"
ChIJ6SYcYrUH44kRdLVPs5tGjA0,Veterans Memorial Stadium,42.6896833,-71.1466454,Health,"stadium,point_of_interest,establishment,",4,"70-71 North Parish Road, Lawrence"
ChIJ6VdzhtsT44kRESC7G7zDfl0,Cardtronics ATM,42.5526233,-70.9392495,Finance,"atm,finance,point_of_interest,establishment,",,"100 Independence Way, Danvers"
ChIJ6VdzhtsT44kRuE0f9iJB_ko,CVS Pharmacy,42.5532031,-70.9375352,Health,"pharmacy,store,health,point_of_interest,establishment,",4,"240 Independence Way, Danvers"
ChIJ6VrknJ8W44kRZM7jfNwG2VU,Barrowclough Contracting LLC,42.5519441,-70.8825306,Finance,"general_contractor,roofing_contractor,point_of_interest,establishment,",,"341 Rantoul Street, Beverly"
ChIJ6w6dMZ1w44kR_UV15er0TqU,Brattle Book Shop,42.3547256,-71.0620412,Education,"book_store,store,point_of_interest,establishment,",4.6,"9 West Street, Boston"
ChIJ6wy05w1644kREbUPIM_jWpM,Consulate General of Canada,42.3473937,-71.0788615,Community,"embassy,point_of_interest,establishment,",5,"3 Copley Place, Boston"
ChIJ6wy05w1644kRKTPpJ_8aDYE,Ausl’_ndishces Konsulat,42.3473937,-71.0788615,Community,"embassy,point_of_interest,establishment,",,"Three Copley Place #500, Boston"
ChIJ6XB0BK1-44kR9UT5tY7_5dQ,Mount Hope Cemetery,42.2829587,-71.1061535,Community,"cemetery,point_of_interest,establishment,",4.5,"355 Walk Hill Street, Boston"
ChIJ6xc1C5p_44kR_JrYyNnZfco,Norfolk County Land Court,42.2490753,-71.1759261,Community,"courthouse,point_of_interest,establishment,",,"649 High Street, Dedham"
ChIJ6xRKQzmq44kRwW4PRqeC_-U,Barnes & Noble,42.7705354,-71.2199584,Education,"book_store,electronics_store,home_goods_store,store,point_of_interest,establishment,",4.3,"125 S Broadway Route 28, Salem"
ChIJ6xxaoAB95IkRXXkLLQ4a0X8,BAPS Shri Swaminarayan Mandir,42.115542,-71.235287,Community,"hindu_temple,place_of_worship,point_of_interest,establishment,",4.8,"4 Commercial Street, Sharon"
ChIJ6YkmZG5544kRh3hj_qENlss,City Feed and Supply,42.3123521,-71.1140041,Community,"grocery_or_supermarket,cafe,store,food,point_of_interest,establishment,",4.3,"672 Centre Street, Jamaica Plain"
ChIJ6yQX1YBw44kRVCGf72mKDlI,Choate Hall & Stewart: Cornish John M.,42.356429,-71.0519069,Community,"lawyer,point_of_interest,establishment,",,"2 International Place, Boston"
ChIJ7__S-PJ-44kRWLlfd7Fxmgo,Ron's Gourmet Ice Cream and Twentieth Century Bowling Alley,42.256814,-71.124124,Health,"bowling_alley,store,food,point_of_interest,establishment,",4.6,"1231 Hyde Park Avenue, Hyde Park"
ChIJ7_Ne2QR644kRqjaIFsBEetI,Uni,42.3486759,-71.0887998,Health,"bar,restaurant,food,point_of_interest,establishment,",4.1,"370A Commonwealth Avenue, Boston"
ChIJ7_Ne2QR644kRqjaIFsBEetI,Uni,42.3486759,-71.0887998,Community,"bar,restaurant,food,point_of_interest,establishment,",4.1,"370A Commonwealth Avenue, Boston"
ChIJ7-BUaR2g44kR-5i_ELMzSMc,Siddha Lalitha Peetham Inc,42.5303394,-71.2063319,Community,"hindu_temple,place_of_worship,point_of_interest,establishment,",,"85 Wilmington Road, Burlington"
ChIJ7-BUaR2g44kRPGX5FOW13mA,Dunkin' Donuts,42.5299911,-71.206498,Health,"cafe,bakery,store,restaurant,food,point_of_interest,establishment,",4,"85 Wilmington Road, Burlington"
ChIJ7-BUaR2g44kRPGX5FOW13mA,Dunkin' Donuts,42.5299911,-71.206498,Community,"cafe,bakery,store,restaurant,food,point_of_interest,establishment,",4,"85 Wilmington Road, Burlington"
ChIJ70CL0VR344kRbXPCPEErqMs,MIT Museum,42.362254,-71.097537,Education,"museum,point_of_interest,establishment,",4.4,"265 Massachusetts Avenue, Cambridge"
ChIJ70eqItCd44kR1DtJaXvl-KU,Ride Studio Cafe,42.4469992,-71.2266997,Health,"bicycle_store,cafe,store,restaurant,food,point_of_interest,establishment,",4.5,"1720 Massachusetts Avenue, Lexington"
ChIJ72pXcXq644kRoI03zVoyL1Y,SkyVenture & Surf's Up New Hampshire,42.7140329,-71.4410467,Community,"amusement_park,store,point_of_interest,establishment,",4.8,"100 Adventure Way, Nashua"
ChIJ785FHhKG44kRxDfs7IXpUs8,Cochituate Post Office,42.3175417,-71.36467,Community,"post_office,finance,point_of_interest,establishment,",,Wayland
ChIJ7cAn-5IK44kRb2DmlnkcMrE,Wilmington Fire Prevention,42.5504251,-71.1709798,Community,"fire_station,point_of_interest,establishment,",,"1 Adelaide Street, Wilmington"
ChIJ7cAn-5IK44kRf0CZJhKCJaY,Wilmington Fire Department,42.5504251,-71.1709798,Community,"fire_station,point_of_interest,establishment,",,"1 Adelaide Street, Wilmington"
ChIJ7cz3AHxy5IkRBem4ds0bCGE,PiNZ - Milford,42.1301811,-71.5184564,Health,"bowling_alley,bar,point_of_interest,establishment,",3.9,"110 South Main Street, Milford"
ChIJ7dOC7ysC44kRb7tSIz5L5HY,All Saints Candlepin Bowling Lanes,42.7784327,-71.0916437,Health,"bowling_alley,point_of_interest,establishment,",4.6,"26 Broadway, Haverhill"
ChIJ7fnBKlli44kRvPQYH75xj6k,BJ's Wholesale,42.2060431,-70.9516094,Health,"bakery,electronics_store,store,health,food,point_of_interest,establishment,",4.2,"622 Washington St., Rte. 53, Weymouth"
ChIJ7R6iu_II44kRFBlmlLLeHNU,Addison Gallery of American Art,42.6485295,-71.1330568,Community,"art_gallery,museum,point_of_interest,establishment,",4.7,"180 Main Street, Andover"
ChIJ7S0uf6l95IkRceE7tE7hBRE,Mastercraft Roofing Siding Windows,42.1179928,-71.2336852,Finance,"roofing_contractor,home_goods_store,store,general_contractor,point_of_interest,establishment,",,"6 Merchant Street, Sharon"
ChIJ7SSGdYJw44kRWwQ4enaj1ag,Al's South Street Cafe,42.3519726,-71.0573294,Health,"meal_delivery,meal_takeaway,restaurant,food,point_of_interest,establishment,",4.7,"179 Essex Street, Boston"
ChIJ7SSGdYJw44kRWwQ4enaj1ag,Al's South Street Cafe,42.3519726,-71.0573294,Health,"meal_delivery,meal_takeaway,restaurant,food,point_of_interest,establishment,",4.7,"179 Essex Street, Boston"
ChIJ7US8_k9244kRlFgQ73A7Jg0,Highrock Covenant Church,42.4165798,-71.1569876,Community,"church,place_of_worship,point_of_interest,establishment,",4.8,"735 Massachusetts Avenue, Arlington"
ChIJ7VDkpH6Q5IkRi3yEiBETj-g,Salon Esprit,42.0262606,-70.9593596,Community,"beauty_salon,hair_care,point_of_interest,establishment,",4.6,"225 Bedford Street, East Bridgewater"
ChIJ7VDkpH6Q5IkRNL35OyTyCj0,Hoyts Cinemas,42.0265834,-70.9595956,Community,"movie_theater,point_of_interest,establishment,",3.3,"225 Bedford Street, East Bridgewater"
ChIJ7VHBwnZ644kRKRWP5Qe27v4,Royale,42.3499921,-71.0655563,Community,"night_club,bar,point_of_interest,establishment,",3.9,"279 Tremont Street, Boston"
ChIJ7WmDOS-D44kRHscorsh50ec,Frank's Spoke 'N Wheel,42.376455,-71.246579,Health,"bicycle_store,store,point_of_interest,establishment,",4,"887 Main Street, Waltham"
ChIJ7XbB2HoU44kRl7_QkmUYukc,Gulu-Gulu Cafe,42.5213111,-70.8962768,Community,"cafe,art_gallery,bar,store,restaurant,food,point_of_interest,establishment,",4.4,"247 Essex Street, Salem"
ChIJ7xvhk9R244kRAqbEY9Ztyx4,Lincoln Equipment Associates Inc,42.4008731,-71.0990079,Finance,"roofing_contractor,store,general_contractor,point_of_interest,establishment,",4.5,"407R Mystic Avenue, Medford"
ChIJ7xZkZ0Sj44kRX-ArhLzkc7U,Chelmsford Police Department,42.6201494,-71.3676854,Community,"police,point_of_interest,establishment,",3.3,"2 Olde North Road, Chelmsford"
ChIJ7ytGIOh544kRVJorxOgGdvY,Symphony Church,42.351866,-71.119682,Community,"church,place_of_worship,point_of_interest,establishment,",5,"971 Commonwealth Avenue, Boston"
ChIJ7z9YoFS744kRWMGBeioeohs,North Chelmsford Lanes,42.6396696,-71.3831731,Health,"bowling_alley,point_of_interest,establishment,",4.9,"22 Vinal Square, North Chelmsford"
ChIJ80C0mkCa44kR4pqBL_NclhA,Concord Academy,42.4592867,-71.3546402,Education,"school,point_of_interest,establishment,",4.7,"166 Main Street, Concord"
ChIJ845yeoSX5IkR-N-BdZCIjYA,Camp Ousamequin,42.0055389,-70.8528732,Community,"campground,premise,park,lodging,point_of_interest,establishment,",,Halifax
ChIJ86QaZMV044kR-Fv_rZ18b1E,On The Border Mexican Grill & Cantina,42.506328,-71.130451,Health,"meal_takeaway,restaurant,food,point_of_interest,establishment,",3.6,"19 Commerce Way, Woburn"
ChIJ8a8FuMOG44kRfq-OrpMs89A,Collins Cinema,42.29348,-71.3074403,Community,"movie_theater,point_of_interest,establishment,",4,"106 Central Street, Wellesley"
ChIJ8alBzRgH44kRNSOkuqCGyco,Methuen Fire Department East End Station Engine 5,42.7263509,-71.1508288,Community,"fire_station,point_of_interest,establishment,",,Methuen
ChIJ8bxCi6uG5IkRv7oq9cEuyC4,cassias transportation,42.1278604,-71.102911,Community,"casino,point_of_interest,establishment,",,"13 Clifford Avenue, Stoughton"
ChIJ8dRZlzV344kRZf3zEws0BDY,Washington Street Art Center,42.379822,-71.100927,Community,"art_gallery,point_of_interest,establishment,",4.9,"321 Washington Street # D, Somerville"
ChIJ8etmFHR644kRJe3EEIPN5M4,Amaci Salon,42.3503239,-71.0689012,Community,"beauty_salon,hair_care,point_of_interest,establishment,",4.6,"230 Stuart Street, Boston"
ChIJ8f-e7ICA5IkRu8nHwJW8F8g,Newbury Comics,42.183277,-71.1879812,Education,"book_store,clothing_store,store,point_of_interest,establishment,",4.6,"859 Boston/Providence Hwy, Norwood"
ChIJ8fRsv-dw44kR0pYmMdmVMS8,Beauty Secrets,42.3845779,-71.0719554,Community,"beauty_salon,point_of_interest,establishment,",5,"529 Main Street #103, Boston"
ChIJ8fRsv-dw44kRjIISwhhTmGY,Flatley Co,42.3845779,-71.0719554,Finance,"real_estate_agency,point_of_interest,establishment,",,"529 Main Street #107, Charlestown"
ChIJ8fRsv-dw44kRPyfqEzCivPE,Bright Horizons at Schraffts,42.3845543,-71.0718173,Education,"school,point_of_interest,establishment,",5,"529 Main Street #001, Charlestown"
ChIJ8S-Dwtl844kRggzxnIr4-Zk,Dr. Richard Mazzaferro,42.2345215,-71.0149382,Health,"physiotherapist,doctor,health,point_of_interest,establishment,",4.2,"300 Congress Street #304, Quincy"
ChIJ8V1On3qD5IkRsjhD7TkshPc,Town Hall,42.1290842,-71.0393479,Community,"city_hall,local_government_office,point_of_interest,establishment,",,"65 Main Street, Avon"
ChIJ8w7qlwiG5IkR7ImYfM1vqVc,W. J. Driscoll Construction,42.065052,-71.101703,Finance,"general_contractor,roofing_contractor,home_goods_store,store,point_of_interest,establishment,",,"115 Main St Suite GB-A, North Easton"
ChIJ8XZQ9A5644kR-8i3134hx2I,Atlantic Fish,42.34924,-71.081185,Community,"bar,restaurant,food,point_of_interest,establishment,",4.4,"761 Boylston Street, Boston"
ChIJ8y0XCk1344kRrFcIWlrZXhU,Islamic Society of Boston,42.3702598,-71.100056,Community,"mosque,place_of_worship,point_of_interest,establishment,",4.7,"204 Prospect Street, Cambridge"
ChIJ8ydol79544kR1LYCqnjBTpI,New England Comics,42.3432725,-71.1233533,Education,"book_store,store,point_of_interest,establishment,",4.2,"316 Harvard Street, Brookline"
ChIJ8yutJA1844kRkecgsTiASGU,Rite Aid,42.2706721,-71.0743037,Health,"pharmacy,convenience_store,store,health,food,point_of_interest,establishment,",4.2,"90 River Street, Mattapan"
ChIJ8yvPresT44kRgE0D5UcB_1E,US Roofing,42.5414869,-70.974896,Finance,"roofing_contractor,general_contractor,point_of_interest,establishment,",5,"484 Lowell Street #2d, Peabody"
ChIJ8yvPresT44kRy2JoKO_fKVg,"Aspen Roofing Services, Inc.",42.541439,-70.927902,Finance,"roofing_contractor,point_of_interest,establishment,",,"58 Pulaski Street #1r, Peabody"
ChIJ8zcBggp_44kR11Q_ubVVKZQ,Dedham Health & Athletic Complex,42.256663,-71.166048,Health,"gym,health,point_of_interest,establishment,",4.4,"200 Boston Providence Highway, Dedham"
ChIJ8zcBggp_44kRp_zw6sePDRA,"Stephanie Schwartz, PT",42.2566634,-71.166048,Health,"physiotherapist,health,point_of_interest,establishment,",,"200 Providence Highway, Dedham"
ChIJ8zISHW-o44kR6iD4_zkUjAc,Jay Gee's Ice Cream and Fun Center,42.696196,-71.225824,Community,"amusement_park,store,food,point_of_interest,establishment,",4.6,"602 Lowell Street, Methuen"
ChIJ8ZvafoRw44kRT_AjNF0DIWc,Us Cards,42.357266,-71.0581879,Community,"courthouse,point_of_interest,establishment,",,"294 Washington Street, Boston"
ChIJ8ZvafoRw44kRT7edJEfbcGM,Russell Fire Club,42.357266,-71.0581879,Community,"fire_station,point_of_interest,establishment,",,"294 Washington Street, Boston"
ChIJ9_27aW8U44kRA2HY1Vk_xxQ,Salem Witch Museum,42.5235864,-70.8910142,Education,"museum,store,point_of_interest,establishment,",3.7,"19 1/2 North Washington Square, Salem"
ChIJ9_juFJkT44kRcDqcf4Uv3EE,TD Bank,42.5257206,-70.9264241,Finance,"bank,atm,finance,point_of_interest,establishment,",2.3,"10 Main Street, Peabody"
ChIJ9-FUzbwW44kROfeeJ6FQEC4,New England Electrology Center,42.5592604,-70.885849,Community,"beauty_salon,hair_care,spa,health,point_of_interest,establishment,",,"100 Cummings Center Suite 114G, Beverly"
ChIJ9-Q4N5J044kR_k-Q6YoL2-A,Courtyard by Marriott Boston Woburn/Boston North,42.4884407,-71.1166302,Health,"lodging,restaurant,food,point_of_interest,establishment,",4.3,"700 Unicorn Park Drive, Woburn"
ChIJ95N57b6E5IkRD-81PW_LRoo,Travis Cycle,42.101963,-71.0225078,Health,"bicycle_store,store,point_of_interest,establishment,",4.5,"722 North Main Street, Brockton"
ChIJ96mBvjJ344kRnJL1UtFHCFc,Somerville City Hall,42.386813,-71.0986037,Community,"city_hall,local_government_office,point_of_interest,establishment,",4.5,"93 Highland Avenue, Somerville"
ChIJ973-pqJ544kRaJ20mxIahVM,Police-Traffic & Parking Clerk,42.3337237,-71.121423,Community,"police,point_of_interest,establishment,",1,"350 Washington Street, Brookline"
ChIJ973-pqJ544kReY5DXuEnfQA,Police-Community Relations,42.3337501,-71.1213672,Community,"police,point_of_interest,establishment,",,"350 Washington Street, Brookline"
ChIJ973-pqJ544kRIIYb5ctjZYU,Brookline Police Department,42.3337501,-71.1213672,Community,"police,point_of_interest,establishment,",3.4,"350 Washington Street, Brookline"
ChIJ973-pqJ544kRSNx_8jMIS88,Brookline Fire Prevention,42.3337237,-71.121423,Community,"fire_station,point_of_interest,establishment,",,"350 Washington Street, Brookline"
ChIJ97qjYgt444kRw8IuvCA96S0,Consulate General of the Republic of Korea,42.3568604,-71.1858743,Community,"embassy,point_of_interest,establishment,",4.4,"300 Washington St #251, Newton"
ChIJ97vAkQZ444kRp2dqKOl5geo,Watertown Administration Building,42.3678547,-71.1874419,Community,"city_hall,local_government_office,point_of_interest,establishment,",5,"149 Main Street, Watertown"
ChIJ98sgHpD044kRzi-j3n0ur6c,CVS Pharmacy,42.3600819,-71.6069448,Health,"pharmacy,store,health,point_of_interest,establishment,",3.7,"423 Donald Lynch Boulevard, Marlborough"
ChIJ99aGzv2C5IkROJ8RQfE7jHE,Town Hall,42.1613709,-71.0428929,Community,"city_hall,local_government_office,point_of_interest,establishment,",,"41 South Main Street, Randolph"
ChIJ9c5IE3t644kR7bWK9GC2ji0,The Art of Shaving,42.3449873,-71.0544196,Community,"beauty_salon,hair_care,store,health,point_of_interest,establishment,",5,"1 Gillette Park, Boston"
ChIJ9c5IE3t644kRmPnSq6KoXFQ,SoundView Financial Credit Union,42.344187,-71.057245,Finance,"atm,finance,point_of_interest,establishment,",,"1 Gillette Park, Boston"
ChIJ9d1H8FR344kRhEMnYcLZ5qw,Sanctuary by VIM,42.3625756,-71.0992458,Health,"gym,health,point_of_interest,establishment,",3.8,"350 Massachusetts Avenue, Cambridge"
ChIJ9d1H8FR344kROEWk7g2cAtI,CBIZ & MHM,42.3506354,-71.0740118,Finance,"accounting,finance,point_of_interest,establishment,",,"500 Boylston Street, Boston"
ChIJ9dyHt-OD44kRgsTNiKFRAOA,Wellesley Hills Congregational,42.3156165,-71.2711666,Community,"church,place_of_worship,point_of_interest,establishment,",4,"207 Washington Street, Wellesley"
ChIJ9eFpR1oL44kRe-uHSEqg7KE,United States Postal Service,42.522885,-71.104777,Community,"post_office,finance,point_of_interest,establishment,",5,"123 Haven Street Ste 2, Reading"
ChIJ9eoavwp644kREpKocGVcTag,French Library,42.3540782,-71.0747949,Community,"movie_theater,point_of_interest,establishment,",,"53 Marlborough Street, Boston"
ChIJ9Qmt2XJ544kR7KgL7JV6O1Q,Jamaica Pond Boat House,42.315757,-71.117527,Community,"park,point_of_interest,establishment,",4.6,"507 Jamaicaway, Jamaica Plain"
ChIJ9STM3bBx44kRf8H96fPBAG0,Chelsea City Hall,42.3936127,-71.0333248,Community,"city_hall,local_government_office,point_of_interest,establishment,",3.5,"500 Broadway, Chelsea"
ChIJ9UB0k5x544kRAMi_KpDJA1A,Hanscom Federal Credit Union,42.3269877,-71.1106324,Finance,"atm,bank,finance,point_of_interest,establishment,",5,"150 South Huntington Avenue, Jamaica Plain"
ChIJ9UB0k5x544kRAMi_KpDJA1A,Hanscom Federal Credit Union,42.3269877,-71.1106324,Finance,"atm,bank,finance,point_of_interest,establishment,",5,"150 South Huntington Avenue, Jamaica Plain"
ChIJ9VFbiBZ944kRbtFB3M1VBP8,Kevin P Martin & Associates PC,42.2194614,-71.0291425,Finance,"accounting,finance,point_of_interest,establishment,",,"10 Forbes Road # 200, Braintree"
ChIJ9VFbiBZ944kRIBipNqNkZHE,"Dr. Steven W. Bergman, DMD",42.2193379,-71.0291562,Health,"dentist,health,point_of_interest,establishment,",,"10 Forbes Road, Braintree"
ChIJ9VFbiBZ944kRLv9qfWhiYUE,KAF,42.2193379,-71.0291562,Finance,"accounting,finance,point_of_interest,establishment,",,"10 Forbes Road, Braintree"
ChIJ9VFbiBZ944kRPYg3iX0P674,"Lalla S. McHugh, MSPT",42.2194125,-71.029613,Health,"physiotherapist,health,point_of_interest,establishment,",,"10 Forbes Road #100 West, Braintree"
ChIJ9VFbiBZ944kRqj7pfcP9MDQ,Merrigan & Merrigan,42.2194614,-71.0291425,Finance,"accounting,lawyer,finance,point_of_interest,establishment,",,"10 Forbes Road, Braintree"
ChIJ9VFbiBZ944kRTKWl6bSn2Gg,Xpitax LLC,42.2194614,-71.0291425,Finance,"accounting,finance,point_of_interest,establishment,",,"10 Forbes Road, Braintree"
ChIJ9VFbiBZ944kRyCXEQ0azHEM,"Fredrickson, Margaret, Cpa - Kirkland Albrecht & Co",42.2193379,-71.0291562,Finance,"accounting,finance,point_of_interest,establishment,",,"10 Forbes Road # 320, Braintree"
ChIJ9YGLzMSd44kREQK5n8d2QoU,Lexington Town Office Building,42.4468482,-71.2245543,Community,"city_hall,local_government_office,point_of_interest,establishment,",5,"1625 Massachusetts Avenue, Lexington"
ChIJ9yHgmfd544kRAhNqO3qyevw,"International English Group, LLC",42.3488004,-71.0995255,Community,"embassy,point_of_interest,establishment,",,"580 Commonwealth Avenue, Boston"
ChIJ9YxKQZF544kRAg4bV958NRc,Parsons Field,42.3373318,-71.1136052,Health,"stadium,point_of_interest,establishment,",4.4,"178 Kent Street, Brookline"
ChIJ9ZfHQlmI44kRBFwfFD4mjpM,Massachusetts Bay CC Bookstore,42.294117,-71.413511,Education,"book_store,store,point_of_interest,establishment,",,"19 Flagg Drive, Framingham"
ChIJ9zOFScmA5IkR1GmO5Dp051g,Knollwood Memorial Park,42.1468101,-71.16509,Community,"cemetery,point_of_interest,establishment,",3.5,"319 High Street, Canton"
ChIJA_-lh0Jy44kRtEQLjsD9JMg,LA Fitness,42.4502331,-71.0252662,Health,"gym,spa,health,point_of_interest,establishment,",3.4,"1450 Broadway, Saugus"
ChIJa_751r5w44kR9iyCPv8MRw8,Cambridge Used Bicycles,42.372476,-71.07865,Health,"bicycle_store,store,point_of_interest,establishment,",4.4,"Cambridge Antique Market, 201 Monsignor O'Brien Highway, Cambridge"
ChIJA_c0BIJw44kR2inTpnGKrLI,Baynorth Capitol,42.352327,-71.056275,Finance,"real_estate_agency,point_of_interest,establishment,",,"1 Financial Ctr # 23, Boston"
ChIJA_c0BIJw44kRC-aqIwcaXdQ,Baker Newman Noyes,42.353232,-71.0562671,Finance,"accounting,finance,point_of_interest,establishment,",,"175 Federal Street #970, Boston"
ChIJA_c0BIJw44kRQtmWDQesn-c,Bank of America ATM,42.3520798,-71.0563665,Finance,"atm,finance,point_of_interest,establishment,",5,"One Financial Center, Boston"
ChIJa-4yiRNx44kRXNnMqNFH7OM,Sky Zone Trampoline Park,42.407227,-71.069155,Community,"amusement_park,point_of_interest,establishment,",4.1,"69 Norman Street, Everett"
ChIJa-MgSpd_44kReqg5hfR4ye0,Dedham Bike,42.2472836,-71.1741781,Health,"bicycle_store,store,point_of_interest,establishment,",4.6,"403 Washington Street, Dedham"
ChIJa-r6Msmm44kRwCYYdwLIv0A,Wamesit Lanes,42.6211054,-71.2581057,Health,"bowling_alley,bar,restaurant,food,point_of_interest,establishment,",4.3,"434 Main Street, Tewksbury"
ChIJA-ZBUYZw44kRQ3wsr9duxf8,"Marriott Vacation Club Pulse at Custom House, Boston",42.35905,-71.053511,Community,"movie_theater,lodging,point_of_interest,establishment,",4.7,"3 McKinley Square, Boston"
ChIJa04qjoRw44kR2r2tfLdX2fg,Ruth's Chris Steak House,42.358125,-71.059337,Health,"restaurant,food,point_of_interest,establishment,",4.1,"45 School Street, Boston"
ChIJa04qjoRw44kRql5lq78Zygs,Freeman's Auction,42.3580622,-71.05922,Community,"art_gallery,finance,home_goods_store,store,point_of_interest,establishment,",,"45 School Street, Boston"
ChIJa1IIZ7KH44kRQqbMTr7r-no,The Center For Arts In Natick,42.28434,-71.348155,Community,"movie_theater,point_of_interest,establishment,",4.6,"14 Summer Street, Natick"
ChIJA1jX0n-e44kRJpx8-OLB8is,Hanscom AFB FamCamp,42.4719155,-71.2788854,Community,"campground,park,lodging,point_of_interest,establishment,",3.6,"1003 Bedford Street, Bedford"
ChIJa2JvUGp_44kR3lhY1sg2Pyc,Va Medical Center-West Roxbury: Srinivasa Venkatesh MD,42.2744473,-71.1717547,Health,"pharmacy,store,health,point_of_interest,establishment,",,"1400 VFW Parkway, West Roxbury"
ChIJa2Q_-IRw44kRdPRLJXpcz9M,US Immigration Court,42.3612313,-71.0600377,Community,"courthouse,point_of_interest,establishment,",4,Boston
ChIJA30lbqmG5IkRlOGZAiq20_k,Stoughton Fire Department,42.125514,-71.101068,Community,"fire_station,point_of_interest,establishment,",4.8,"30 Freeman Street, Stoughton"
ChIJa3denw9644kRFTT5EfLQcbo,Kashmir Restaurant,42.349317,-71.083926,Health,"meal_takeaway,restaurant,food,point_of_interest,establishment,",3.6,"279 Newbury Street, Boston"
ChIJA4WWU7Fy44kRVB5kQcb3lV8,Camp Nihan Environmental Education Camp,42.49242,-71.0198078,Community,"campground,park,lodging,point_of_interest,establishment,",3.8,"131 Walnut Street, Saugus"
ChIJa5lD919y44kR1KP5sX7ACkc,LUX Dental for Kids,42.460965,-71.027433,Health,"dentist,doctor,health,point_of_interest,establishment,",4.2,"1201 Broadway, Saugus"
ChIJa5tN6YFw44kR74QcIFcVLXY,Consulate General of Britain,42.3526764,-71.0534165,Community,"embassy,point_of_interest,establishment,",,"600 Atlantic Avenue # 1700, Boston"
ChIJa5tN6YFw44kR8iH-n5-FB-Q,Federal Reserve Bank Research Library,42.3526764,-71.0534165,Education,"library,point_of_interest,establishment,",5,"600 Atlantic Avenue, Boston"
ChIJa5tN6YFw44kRpESmdutKqQQ,Consulate General of Italy in Boston,42.3526764,-71.0534165,Community,"embassy,point_of_interest,establishment,",4.7,"600 Atlantic Avenue, Boston"
ChIJa7DGGHd544kRRHr1vec4Oio,Canary Square,42.319796,-71.11197,Community,"bar,restaurant,food,point_of_interest,establishment,",4.1,"435 South Huntington Avenue, Jamaica Plain"
ChIJa7E7v79544kRcRrzGXAxqLE,Coolidge Corner Theatre,42.3426656,-71.1225004,Community,"movie_theater,point_of_interest,establishment,",4.7,"290 Harvard Street, Brookline"
ChIJa8rjXyZ644kRyGx3iBoWMDQ,Reggie Lewis Track and Athletic Center,42.3319752,-71.093046,Health,"gym,health,point_of_interest,establishment,",4.4,"1350 Tremont Street, Roxbury Crossing"
ChIJAag0aTt_44kR5_NW9eQrBAw,Busted Knuckle Bicycle Shop,42.286406,-71.1370522,Health,"bicycle_store,store,point_of_interest,establishment,",4.8,"159 Belgrade Avenue, Roslindale"
ChIJaaJe9RZw44kRGxEuureLcwQ,Citizens Bank,42.3621732,-71.0192515,Finance,"bank,atm,finance,point_of_interest,establishment,",,"100 Harborside Drive, Boston"
ChIJaaJe9RZw44kRGxEuureLcwQ,Citizens Bank,42.3621732,-71.0192515,Finance,"bank,atm,finance,point_of_interest,establishment,",,"100 Harborside Drive, Boston"
ChIJaaJe9RZw44kRzxbDYpG_oFA,Bank of America ATM,42.3637139,-71.0181597,Finance,"atm,bank,finance,point_of_interest,establishment,",,"Logan Airport Terminal E, Boston"
ChIJaaJe9RZw44kRzxbDYpG_oFA,Bank of America ATM,42.3637139,-71.0181597,Finance,"atm,bank,finance,point_of_interest,establishment,",,"Logan Airport Terminal E, Boston"
ChIJAaqapUpj44kRyQbTA9Jj9CU,New England Comics,42.2480023,-71.0018109,Education,"book_store,store,point_of_interest,establishment,",4.7,"1511 Hancock Street, Quincy"
ChIJab-VJfCu5okRaAP4xdJcl_0,Wegmans Pharmacy,42.2915182,-71.6705863,Health,"pharmacy,store,health,point_of_interest,establishment,",4.5,"9102 Shops Way, Northborough"
ChIJAb6hxyh444kRM0ciE1vY-m8,UPS Customer Center,42.3651352,-71.1551683,Community,"post_office,finance,store,point_of_interest,establishment,",2.3,"76 Arlington Street, Watertown"
ChIJAb9OkZVy44kRaCtzhbLk8Xg,Barnes & Noble,42.4790476,-71.0204113,Education,"book_store,electronics_store,home_goods_store,store,point_of_interest,establishment,",4.5,"444 Broadway, Saugus"
ChIJAc6HDU1944kRdksY5Bx280M,Rite Aid,42.201792,-71.004482,Health,"pharmacy,convenience_store,store,health,food,point_of_interest,establishment,",3.3,"11 Pearl Street, Braintree"
ChIJAcvlHpJ544kR6ibHXRRSBio,"Dr. Efstathios Papavassiliou, MD",42.3372805,-71.1100682,Health,"doctor,health,point_of_interest,establishment,",3,"110 Francis Street #3B, Boston"
ChIJadadxTp644kRM9juTBTglr8,Citizens Bank,42.3299186,-71.0849091,Finance,"bank,atm,finance,point_of_interest,establishment,",4.5,"2343 Washington Street, Roxbury"
ChIJadadxTp644kRM9juTBTglr8,Citizens Bank,42.3299186,-71.0849091,Finance,"bank,atm,finance,point_of_interest,establishment,",4.5,"2343 Washington Street, Roxbury"
ChIJAdxFhtmf44kRHPItSVvZ0_4,Mount Hope Christian Church - Belmont,42.38629,-71.191224,Community,"church,place_of_worship,point_of_interest,establishment,",5,"51 Lexington Street, Belmont"
ChIJAeaaK02e44kRkrEMILWPc9E,Barnes & Noble,42.4797331,-71.2171628,Education,"book_store,electronics_store,home_goods_store,store,point_of_interest,establishment,",4.5,"98 Middlesex Turnpike, Burlington"
ChIJAQAAAJCE44kRyvwV1gYUDxo,Regis Bookstore,42.351159,-71.310489,Education,"book_store,store,point_of_interest,establishment,",4.7,"235 Wellesley Street, Weston"
ChIJAQBkN4d644kR9f0lgHA4mmA,Cakeology,42.3573986,-71.0582022,Health,"bakery,store,food,point_of_interest,establishment,",5,"290 Washington Street, Boston"
ChIJaQOuP3d644kRclHgQ-N83Dg,"Jonathan Weinstock, MD",42.349508,-71.063164,Health,"doctor,health,point_of_interest,establishment,",,"800 Washington Street, South Building, 3rd Floor, Boston"
ChIJaQOuP3d644kRDGn5jdudUTw,Ralston Steven MD,42.349512,-71.063308,Health,"doctor,health,point_of_interest,establishment,",,"800 Washington Street, Boston"
ChIJaQOuP3d644kRQv5PmIPKU4g,"Michael B. Raizman, MD -New England Eye Center",42.3503819,-71.064548,Health,"doctor,health,point_of_interest,establishment,",,"260 Tremont St., 9th Floor Cornea, Boston"
ChIJAR6OIHV644kR21w7agprQWA,Emmanuel Episcopal Church Of Boston,42.3524913,-71.0723866,Community,"synagogue,church,place_of_worship,point_of_interest,establishment,",4.7,"15 Newbury Street, Boston"
ChIJARFGvhh444kRM3YOFrm4b_A,Seven Cycles Inc,42.3652712,-71.1707282,Health,"bicycle_store,store,point_of_interest,establishment,",5,"125 Walnut Street # 101, Watertown"
ChIJARovtp5k5IkRGs1tcTl82pQ,Plainridge Park Casino,42.0321881,-71.3043791,Community,"casino,night_club,bar,restaurant,food,point_of_interest,establishment,",3.5,"301 Washington Street, Plainville"
ChIJARR6x7Bx44kRiTvsO12Ar48,Chelsea Fire Department,42.399247,-71.0225786,Community,"fire_station,point_of_interest,establishment,",,"883 Broadway, Chelsea"
ChIJAS-f82pt5IkRIlcZ00TnCOw,Mendon Twin Drive-In,42.1125362,-71.5469786,Community,"movie_theater,point_of_interest,establishment,",4.4,"35 Milford Street, Mendon"
ChIJASDjhdF_5IkRhYH9nCbJvSo,New England Comics,42.1916451,-71.202187,Education,"book_store,store,point_of_interest,establishment,",4.3,"732 Washington Street, Norwood"
ChIJASRLo4Z144kRBl_5q1HJvxw,Cafe Escadrille,42.4822382,-71.1871229,Community,"cafe,restaurant,food,point_of_interest,establishment,",4.2,"26 Cambridge Street, Burlington"
ChIJASvsRlhj5IkRwsqAuLoLDfI,Massachusetts State Police,42.0750404,-71.2856537,Community,"police,point_of_interest,establishment,",4.4,"136 Washington Street, Foxborough"
ChIJATUkLkVw44kRaX-qHkWmh-A,Consulate General of El Salvador,42.3756672,-71.0373686,Community,"embassy,point_of_interest,establishment,",2.7,"46 Bennington Street, Boston"
ChIJaUcc1Qqb44kRCHDCI4YhVhQ,deCordova Sculpture Park and Museum,42.430846,-71.310806,Education,"museum,point_of_interest,establishment,",4.6,"51 Sandy Pond Road, Lincoln"
ChIJaUjmuWV544kRWiZBnSUBGu0,Bikes Not Bombs,42.3097887,-71.1071968,Health,"bicycle_store,store,point_of_interest,establishment,",4.5,"18 Bartlett Square, Jamaica Plain"
ChIJAUQAEw1644kRiH3TEcM9qi0,Equinox Dartmouth,42.346792,-71.075453,Health,"gym,health,point_of_interest,establishment,",3.9,"131 Dartmouth Street, Boston"
ChIJaVmpB2UR44kRCITfO5cg0J8,Danvers Forestry Department,42.5673334,-70.9401748,Community,"campground,local_government_office,park,lodging,point_of_interest,establishment,",,"17 Hobart Street, Danvers"
ChIJAVnXXDed44kRwFVtM9mLm5g,Einstein Bros. Bagels,42.3878542,-71.220025,Health,"cafe,bakery,store,restaurant,food,point_of_interest,establishment,",3.4,"175 Forest Street, Waltham"
ChIJAVnXXDed44kRwFVtM9mLm5g,Einstein Bros. Bagels,42.3878542,-71.220025,Community,"cafe,bakery,store,restaurant,food,point_of_interest,establishment,",3.4,"175 Forest Street, Waltham"
ChIJawiVYqYH44kR1LSb-RZt9L0,Lawrence District Court,42.706667,-71.160436,Community,"courthouse,local_government_office,point_of_interest,establishment,",3.2,"2 Appleton Street, Lawrence"
ChIJaWNI3F2P5IkRJdQUXzEVAuU,American Fire Equipment Co Inc,42.045108,-71.075262,Community,"fire_station,store,point_of_interest,establishment,",,"1940, 58 Norfolk Avenue # 5, South Easton"
ChIJaWUhiAV-5IkRg_voVhGnF6M,Barnes & Noble,42.1546557,-71.2020389,Education,"book_store,electronics_store,home_goods_store,store,point_of_interest,establishment,",4.1,"82 Providence Highway, East Walpole"
ChIJax5pk2Kj44kRK0OI5W5LFWk,BAPS Shri Swaminarayan Mandir,42.627934,-71.348572,Community,"hindu_temple,place_of_worship,point_of_interest,establishment,",4.8,"50 Stedman Street, Lowell"
ChIJaxH09Dh544kRyBRUrinxRfQ,Arnold Arboretum of Harvard University,42.3073674,-71.1207759,Community,"park,point_of_interest,establishment,",4.8,"125 Arborway, Boston"
ChIJAXh6QBwl44kRfemqKXtReZ8,B G I,42.6121997,-70.6649671,Community,"casino,point_of_interest,establishment,",,"67 Main Street, Gloucester"
ChIJaxSbrXsU44kRlkuQDQIsixM,The Witch House,42.5215456,-70.898906,Education,"museum,point_of_interest,establishment,",4.1,"310 Essex Street, Salem"
ChIJAY7DsLl85IkR4DT_3nCGAbQ,Howl Splitsville Foxborough,42.093361,-71.2656314,Health,"bowling_alley,night_club,bar,restaurant,food,point_of_interest,establishment,",3.9,"220 Patriot Place, Foxborough"
ChIJAybIQgV644kRiU0zHxGqzLY,Sonsie,42.3487048,-71.0861862,Community,"cafe,night_club,bar,restaurant,food,point_of_interest,establishment,",4,"327 Newbury Street, Boston"
ChIJayty7sJ544kR9bGIOT9Py64,Planned Parenthood - Greater Boston Health Center,42.352337,-71.1229469,Health,"hospital,point_of_interest,establishment,",3.4,"1055 Commonwealth Avenue, Boston"
ChIJAzFj0fRy44kR75xLDayRons,Buffalo Wild Wings,42.4635614,-71.0263914,Health,"bar,meal_takeaway,restaurant,food,point_of_interest,establishment,",3.7,"180 Main Street, Saugus"
ChIJB-cpG9lw44kRCV5z4Bcv5LI,Anthony Capalino Salon,42.3906141,-71.0820257,Community,"beauty_salon,hair_care,point_of_interest,establishment,",4.2,"5 Middlesex Avenue, Somerville"
ChIJB-cpG9lw44kRNw4AlqeYCQI,Assembly Square Family Dental,42.3911898,-71.0821318,Health,"dentist,health,point_of_interest,establishment,",4.3,"5 Middlesex Avenue # 306, Somerville"
ChIJb1HtF7pE5IkRf3oDduSg5XQ,Episcopal Diocese of Massachusetts,42.355747,-71.0622738,Community,"church,place_of_worship,point_of_interest,establishment,",3.8,"138 Tremont Street, Boston"
ChIJb1sNsXh644kRqLkLda-ejnQ,Auntie Anne's,42.3516011,-71.0553617,Health,"bakery,cafe,meal_takeaway,store,restaurant,food,point_of_interest,establishment,",4,"700 Atlantic Ave #2, Boston"
ChIJB1WHNwp344kRE1Y6FE_HyBs,TD Bank,42.3890207,-71.1437327,Finance,"bank,atm,finance,point_of_interest,establishment,",3,"235 Alewife Brook Parkway, Cambridge"
ChIJB1WHNwp344kRE1Y6FE_HyBs,TD Bank,42.3890207,-71.1437327,Finance,"bank,atm,finance,point_of_interest,establishment,",3,"235 Alewife Brook Parkway, Cambridge"
ChIJb2sAsFkG44kRe0EgyLzK2iE,North Andover Fire Department,42.7045055,-71.1166406,Community,"fire_station,point_of_interest,establishment,",5,"795 Chickering Road, North Andover"
ChIJb2Uq1oVw44kRGeTJX8kr7Bg,Bertucci's,42.3593983,-71.0558269,Health,"meal_takeaway,restaurant,food,point_of_interest,establishment,",3.6,"22 Merchants Row, Boston"
ChIJB33VN5Kh44kR4Pd2GOEyTog,Billerica Fire Department,42.5627027,-71.272407,Community,"fire_station,point_of_interest,establishment,",,"8 Good Street, Billerica"
ChIJB4lHp0V344kRV58MNYtuQso,Cambridge Public Library,42.3739016,-71.1101996,Education,"library,point_of_interest,establishment,",4.7,"449 Broadway, Cambridge"
ChIJb4lW-TCC44kR9xO6eUaxQhs,Wells Fargo Advisors LLC: Zahka Stephen,42.3176647,-71.230289,Finance,"insurance_agency,point_of_interest,establishment,",,"20 William Street # 300, Wellesley"
ChIJb4lW-TCC44kRDh2yvwo2gjw,Burbank Peter,42.3176647,-71.230289,Finance,"insurance_agency,point_of_interest,establishment,",,"20 William Street # 300, Wellesley"
ChIJb4lW-TCC44kRWR3G-Fdem6k,Stifel Nicolaus Inc: Mcinerney H,42.3177331,-71.2305441,Finance,"insurance_agency,point_of_interest,establishment,",,"20 William Street, Wellesley"
ChIJb4lW-TCC44kRyxedyyGSiKc,"New England Investment Properties, Inc.",42.317727,-71.2305949,Finance,"real_estate_agency,general_contractor,point_of_interest,establishment,",5,"20 William Street, Wellesley"
ChIJb4wUsI5w44kRnERe7ywQaJA,Regina Pizzeria,42.3654261,-71.0568787,Community,"bar,restaurant,food,point_of_interest,establishment,",4.6,"11 1/2 Thacher Street, Boston"
ChIJb534s85744kRQ4FcHYyLiF8,Alrowda Mosque,42.3123371,-71.07983,Community,"mosque,place_of_worship,point_of_interest,establishment,",4.6,"5 Creston Street, Dorchester"
ChIJb5GdmUBy44kR5ici4YpIX4U,Town Line Luxury Lanes,42.442912,-71.0292809,Health,"bowling_alley,bar,point_of_interest,establishment,",4.3,"665 Broadway, Malden"
ChIJb5GdmUBy44kR5ici4YpIX4U,Town Line Luxury Lanes,42.442912,-71.0292809,Community,"bowling_alley,bar,point_of_interest,establishment,",4.3,"665 Broadway, Malden"
ChIJB6hqYJd_44kRnJkoQQnP2SU,Blue Bunny,42.2482584,-71.1728388,Education,"book_store,store,point_of_interest,establishment,",4.8,"577 High Street, Dedham"
ChIJB6hqYJd_44kRvb_jiIGY9kI,Dedham Community Theatre,42.247976,-71.173155,Community,"movie_theater,point_of_interest,establishment,",4.6,"580 High Street, Dedham"
ChIJB73v5T9644kRSZajYoo29fw,Blunch,42.335407,-71.074772,Health,"cafe,meal_takeaway,store,restaurant,food,point_of_interest,establishment,",4.7,"59 East Springfield Street, Boston"
ChIJB73v5T9644kRSZajYoo29fw,Blunch,42.335407,-71.074772,Community,"cafe,meal_takeaway,store,restaurant,food,point_of_interest,establishment,",4.7,"59 East Springfield Street, Boston"
ChIJb7nX2YVw44kR-2OF7aK3RrY,Bangkok Express,42.3600202,-71.054379,Finance,"atm,finance,restaurant,food,point_of_interest,establishment,",1.3,"1 South Market Street, Boston"
ChIJb7nX2YVw44kRCwqkn8EAfoE,Eyal Court Reporting Inc,42.3602407,-71.0548375,Community,"courthouse,point_of_interest,establishment,",,"Faneuil Hall, Boston"
ChIJb7nX2YVw44kRSP6Cv2tNwi4,Ashland Accounting LLP,42.3596888,-71.0559517,Finance,"accounting,finance,point_of_interest,establishment,",,"1 South Market Street, Boston"
ChIJb7nX2YVw44kRtgHbmPtsymA,Cheers,42.3600612,-71.0553922,Community,"cafe,bar,restaurant,food,point_of_interest,establishment,",3.5,"1 Faneuil Hall Market Place, Boston"
ChIJb7nX2YVw44kRVj44K3hKtbM,Newbury Comics,42.3605636,-71.0544858,Education,"book_store,electronics_store,home_goods_store,store,point_of_interest,establishment,",4.4,"1 N Market St #366, Boston"
ChIJb8BV9XZ644kRU7972wX2l_k,Crazy Dough's Pizza,42.3514676,-71.0658408,Health,"meal_delivery,meal_takeaway,restaurant,food,point_of_interest,establishment,",3,"8 Park Plaza, Boston"
ChIJB8hqs86c44kRPwP-BpVKqLM,Artisan Pharma Inc,42.3915724,-71.2565711,Health,"pharmacy,store,health,point_of_interest,establishment,",,"200 5th Avenue, Waltham"
ChIJB939tp9w44kR4OL1wUOrtrc,Boston Common Frog Pond,42.3561126,-71.065514,Community,"amusement_park,cafe,park,food,point_of_interest,establishment,",4.5,"38 Beacon Street, Boston"
ChIJB939tp9w44kR4OL1wUOrtrc,Boston Common Frog Pond,42.3561126,-71.065514,Community,"amusement_park,cafe,park,food,point_of_interest,establishment,",4.5,"38 Beacon Street, Boston"
ChIJB939tp9w44kR4OL1wUOrtrc,Boston Common Frog Pond,42.3561126,-71.065514,Community,"amusement_park,cafe,park,food,point_of_interest,establishment,",4.5,"38 Beacon Street, Boston"
ChIJB939tp9w44kRQuO7SeU0ML4,Cheers,42.3559234,-71.0712784,Community,"bar,restaurant,food,point_of_interest,establishment,",4.1,"84 Beacon Street, Boston"
ChIJb9nuT0tj44kR9SNfVqy_a4c,Thomas Crane Public Library,42.251511,-71.00059,Education,"library,point_of_interest,establishment,",4.5,"40 Washington Street, Quincy"
ChIJBa-lXQCJ44kRoHZZiXuwOT0,"Plymouth Church of Framingham, UCC",42.3032354,-71.4327855,Community,"church,place_of_worship,point_of_interest,establishment,",5,"87 Edgell Road, Framingham"
ChIJba7yXTB044kRoEnjCD75v_k,Winchester Town Hall,42.452827,-71.1343887,Community,"city_hall,local_government_office,point_of_interest,establishment,",5,"71 Mount Vernon Street, Winchester"
ChIJbadJvRZ144kRAAs93dshoF4,Reading Cooperative Bank,42.4996708,-71.1619019,Finance,"bank,atm,finance,point_of_interest,establishment,",,"300 TradeCenter, Woburn"
ChIJbadJvRZ144kRVyN6SBSnclY,Samuel P. Freeman CPA,42.500158,-71.162542,Finance,"accounting,finance,point_of_interest,establishment,",4.5,"128 TradeCenter, G, Sylvan Road #700, Woburn"
ChIJbak5QAl344kR3mOiFm_lThA,Tyler Lynch PC,42.3903564,-71.1407503,Finance,"accounting,finance,point_of_interest,establishment,",5,"186 Alewife Brook Parkway # 200, Cambridge"
ChIJbanY6YNw44kRK_31_bBKas8,US Bank Corporate Trust Services,42.356109,-71.056842,Finance,"bank,finance,point_of_interest,establishment,",,"1 Federal Street, Boston"
ChIJbbPB5rB844kR7hOzzjBr4Cs,Adams National Historical Park,42.256412,-71.011167,Community,"park,point_of_interest,establishment,",4.5,"135 Adams Street, Quincy"
ChIJbdpRjAMU44kRdPobl7wcPn8,Picture Perfect,42.548318,-70.899462,Community,"movie_theater,electronics_store,store,point_of_interest,establishment,",3,"43 Hillcrest Avenue, Beverly"
ChIJbdUBYR2n44kR9aIGnbwDvIE,Pro-Mail Inc,42.6371678,-71.2393868,Community,"post_office,finance,point_of_interest,establishment,",,"836 North Street #3, Tewksbury"
ChIJBe3-kfiE5IkRodq5WiIOyvI,Westgate Lanes Inc,42.0905449,-71.047633,Health,"bowling_alley,point_of_interest,establishment,",4.2,"65 Westgate Drive, Brockton"
ChIJBe7rlbWG44kRBZhRZKHd3Fs,Wellesley Town Hall,42.2979756,-71.2915411,Community,"city_hall,local_government_office,point_of_interest,establishment,",5,"525 Washington Street, Wellesley"
ChIJbfTGoI5644kRHoDeiTk0jwU,"South Boston Division, Boston Municipal Court Department",42.3352408,-71.0426641,Community,"courthouse,point_of_interest,establishment,",5,"535 E Broadway, South Boston"
ChIJBQ_3staC44kRDRsK0GXp_G0,Johnson Compounding and Wellness,42.3768263,-71.2341997,Health,"pharmacy,store,health,point_of_interest,establishment,",4.7,"577 Main Street, Waltham"
ChIJBQ3VJiuD44kRZlVFutU55qo,Drake Playground,42.382853,-71.2426766,Community,"amusement_park,point_of_interest,establishment,",4.8,"3 Hazel Street, Waltham"
ChIJBQNut14L44kReaB8N5aQl2I,Reading Fire Department,42.5268004,-71.1015204,Community,"fire_station,point_of_interest,establishment,",3,"757 Main Street, Reading"
ChIJBSxo0hx644kRynOPvpeqGhA,Cafe 472,42.3485415,-71.0936685,Health,"cafe,meal_takeaway,store,restaurant,food,point_of_interest,establishment,",3.3,"472 Commonwealth Ave, Boston"
ChIJBSxo0hx644kRynOPvpeqGhA,Cafe 472,42.3485415,-71.0936685,Community,"cafe,meal_takeaway,store,restaurant,food,point_of_interest,establishment,",3.3,"472 Commonwealth Ave, Boston"
ChIJbTwKF0aI44kR-Mchq5ycg-E,The Vanishing Vein,42.2833923,-71.4175396,Community,"beauty_salon,hair_care,health,point_of_interest,establishment,",5,"61 Lincoln Street, Framingham"
ChIJBUykfyyn44kR2cj8eKOhAtM,Tewksbury Town Hall,42.611902,-71.2342732,Community,"city_hall,local_government_office,point_of_interest,establishment,",,"1009 Main Street, Tewksbury"
ChIJBUykfyyn44kRfFTpo9b5g0s,Tewksbury Town Manager,42.611902,-71.2342732,Community,"city_hall,local_government_office,point_of_interest,establishment,",,"1009 Main Street, Tewksbury"
ChIJBVErGCJ344kRPNC9VULyPhQ,Bike Boom,42.3955715,-71.1197559,Health,"bicycle_store,store,point_of_interest,establishment,",4.7,"389 Highland Avenue, Somerville"
ChIJBVGbMspw44kRY6L8VRdTmb4,Somerville PD Drug/Gang/Crime Hotline,42.3790666,-71.0921977,Community,"police,point_of_interest,establishment,",,"220 Washington Street, Somerville"
ChIJbWpRc5N_44kRdOc_RcOtl1s,BJ's Wholesale,42.2421752,-71.1744888,Health,"bakery,liquor_store,car_repair,electronics_store,store,health,food,point_of_interest,establishment,",4.2,"688 Providence Highway, Dedham"
ChIJbx4mJRZ944kRaJd0u81PhIA,Sleek Surgical & MedSpa,42.2218498,-71.0240744,Community,"beauty_salon,hair_care,spa,doctor,health,point_of_interest,establishment,",1.5,"250 Granite Street, Braintree"
ChIJbx7saslw44kRL40xamV9eXY,Empire Tattoo Boston / Somerville,42.3806106,-71.0893028,Community,"art_gallery,clothing_store,store,point_of_interest,establishment,",4.5,"151 Washington Street, Somerville"
ChIJBXdIfOoK44kRem7A3DQemwQ,As Good As It Gets Cafe,42.541741,-71.165415,Health,"cafe,meal_takeaway,store,restaurant,food,point_of_interest,establishment,",4.5,"35 Lowell Street, Wilmington"
ChIJBXdIfOoK44kRem7A3DQemwQ,As Good As It Gets Cafe,42.541741,-71.165415,Community,"cafe,meal_takeaway,store,restaurant,food,point_of_interest,establishment,",4.5,"35 Lowell Street, Wilmington"
